FACILITY_ID_NUMBER,FACILITY_NAME,LATITUDE,LONGITUDE,COUNCIL,Infant mortality rate,maternal mortality ratio,neo natal mortality rate,region,Region_1,infant_mortality_rate
100029-8,AAR,-3.37317,36.7018,Arusha City Council,,,,Arusha,Arusha,6.4
100185-8,ARUSHA,-3.37955,36.70607,Arusha City Council,,,,Arusha,Arusha,6.4
100187-4,ARUSHA HOSPITAL FOR WOMEN,-3.36106,36.68535,Arusha City Council,,,,Arusha,Arusha,6.4
100188-2,ARUSHA LUTHERAN CENTER,-3.36626,36.6823,Arusha City Council,,,,Arusha,Arusha,6.4
100189-0,ARUSHA MED CENTRE,-3.37636,36.698442,Arusha City Council,,,,Arusha,Arusha,6.4
100190-8,ARUSHA SCHOOL,,,Arusha City Council,,,,Arusha,Arusha,6.4
100192-4,ARUSHA X-RAY CENTER,-3.36579,36.699,Arusha City Council,,,,Arusha,Arusha,6.4
100320-1,BARAA RC,-3.38882,36.73671,Arusha City Council,,,,Arusha,Arusha,6.4
100364-9,BIKIRA MARIA MAMA WA HURUMA,-3.3657,36.6876,Arusha City Council,,,,Arusha,Arusha,6.4
100675-8,CANOSA,-3.45545,36.7115,Arusha City Council,,,,Arusha,Arusha,6.4
100909-1,COGI DARAJA II,-3.038734,36.69091,Arusha City Council,,,,Arusha,Arusha,6.4
100912-5,COGI KIJENGE,-3.37891,36.7067,Arusha City Council,,,,Arusha,Arusha,6.4
101053-7,EBEN,-3.363729,36.689658,Arusha City Council,,,,Arusha,Arusha,6.4
101068-5,ELERAI WEST END,-3.4067,36.65919,Arusha City Council,,,,Arusha,Arusha,6.4
101121-2,FAITH,-3.36711,36.72186,Arusha City Council,,,,Arusha,Arusha,6.4
101134-5,FARAJA,-3.37231,36.68135,Arusha City Council,,,,Arusha,Arusha,6.4
101224-4,GLORIA,-3.361671,36.697168,Arusha City Council,,,,Arusha,Arusha,6.4
101257-4,GREEN HOPE,-3.3653,36.70958,Arusha City Council,,,,Arusha,Arusha,6.4
101337-4,HEALTH MASTER,-3.07298,36.68774,Arusha City Council,,,,Arusha,Arusha,6.4
101355-6,HERI GOOD SAMARITAN,-3.38638,36.68523,Arusha City Council,,,,Arusha,Arusha,6.4
101379-6,HOLY FAMILY,-3.41223,36.70756,Arusha City Council,,,,Arusha,Arusha,6.4
101418-2,HURUMA KANORA,,,Arusha City Council,,,,Arusha,Arusha,6.4
101426-5,I. C. M. FELLOWSHIP,-3.37285,36.67476,Arusha City Council,,,,Arusha,Arusha,6.4
101462-0,ICD,-3.37424,36.68132,Arusha City Council,,,,Arusha,Arusha,6.4
101981-9,ITHNAASHER,-3.22463,36.4089,Arusha City Council,,,,Arusha,Arusha,6.4
102258-1,KALOLENI,-3.369322,36.688577,Arusha City Council,,,,Arusha,Arusha,6.4
102269-8,KAM MED CENTRE,-3.37824,36.69623,Arusha City Council,,,,Arusha,Arusha,6.4
102339-9,HURUMA KANORA,-3.3875,36.6818,Arusha City Council,,,,Arusha,Arusha,6.4
102755-6,KIJENGE RC,-3.3816,36.70815,Arusha City Council,,,,Arusha,Arusha,6.4
103490-9,LEVOLOSI,-3.37227,36.6799,Arusha City Council,,,,Arusha,Arusha,6.4
103705-0,LULU,-3.37824,36.6625,Arusha City Council,,,,Arusha,Arusha,6.4
104200-1,MAMA BEBA MTOTOT MATERNITY,-3.36686,36.681,Arusha City Council,,,,Arusha,Arusha,6.4
104331-4,MARIE STOPES,-3.375017,36.684402,Arusha City Council,,,,Arusha,Arusha,6.4
105112-7,MKONOO,-3.46341,36.69805,Arusha City Council,,,,Arusha,Arusha,6.4
105272-9,MOIVARO,-3.39281,36.7559,Arusha City Council,,,,Arusha,Arusha,6.4
105308-1,MOSHI ARUSHA OCC SERVICES,-3.37683,36.69793,Arusha City Council,,,,Arusha,Arusha,6.4
105316-4,MOUNT MERU,-3.36642,36.69498,Arusha City Council,,,,Arusha,Arusha,6.4
106131-6,NAMDS NJIRO,-3.40814,36.70776,Arusha City Council,,,,Arusha,Arusha,6.4
106168-8,NANENANE,-3.40057,36.7048,Arusha City Council,,,,Arusha,Arusha,6.4
106358-5,NGARENARO,-3.37346,36.68146,Arusha City Council,,,,Arusha,Arusha,6.4
106891-5,OLD ARUSHA CLINIC,-3.37439,36.69686,Arusha City Council,,,,Arusha,Arusha,6.4
106910-3,OLKERIAN,-3.43613,36.72062,Arusha City Council,,,,Arusha,Arusha,6.4
107008-5,POLICE,-3.36811,36.69189,Arusha City Council,,,,Arusha,Arusha,6.4
107272-7,SANAWARI,-3.36216,36.69566,Arusha City Council,,,,Arusha,Arusha,6.4
107358-4,SELIAN TOWN CLINIC,-3.36715,36.6859,Arusha City Council,,,,Arusha,Arusha,6.4
107442-6,SHREE HINDU MANDAL,-3.377127,36.689223,Arusha City Council,,,,Arusha,Arusha,6.4
107465-7,SIKH TEMPLE,-3.37512,36.68469,Arusha City Council,,,,Arusha,Arusha,6.4
107527-4,SOMBETINI,-3.38604,36.66179,Arusha City Council,,,,Arusha,Arusha,6.4
107581-1,ST. ELIZABETH,-3.35724,36.677,Arusha City Council,,,,Arusha,Arusha,6.4
107613-2,ST. MICHAEL,-3.37752,36.683,Arusha City Council,,,,Arusha,Arusha,6.4
107637-1,ST. THOMAS,-3.37234,36.6884,Arusha City Council,,,,Arusha,Arusha,6.4
107639-7,ST. VERONICA,-3.36668,36.67221,Arusha City Council,,,,Arusha,Arusha,6.4
107809-6,TERRAT,-3.94764,36.68623,Arusha City Council,,,,Arusha,Arusha,6.4
107811-2,TERRAT ROAD,-3.38132,36.686,Arusha City Council,,,,Arusha,Arusha,6.4
107817-9,THEMI,-3.39838,36.70107,Arusha City Council,,,,Arusha,Arusha,6.4
107868-2,TOTAL CARE,-3.39064,36.70467,Arusha City Council,,,,Arusha,Arusha,6.4
108118-1,UPENDO,-3.36001,36.6961,Arusha City Council,,,,Arusha,Arusha,6.4
108142-1,UPONE,-3.37977,36.6702,Arusha City Council,,,,Arusha,Arusha,6.4
108395-5,ZAAC,-3.38357,36.69234,Arusha City Council,,,,Arusha,Arusha,6.4
108577-8,AGA KHAN,-3.37077,36.68944,Arusha City Council,,,,Arusha,Arusha,6.4
108580-2,SUNNI MUSLIM DISPENSARY,-3.37178,36.68668,Arusha City Council,,,,Arusha,Arusha,6.4
109439-0,MAGEREZA,-3.36928,36.61999,Arusha City Council,,,,Arusha,Arusha,6.4
109516-5,DADOSOITO,-3.49398,36.68103,Arusha City Council,,,,Arusha,Arusha,6.4
109552-0,DARAJA II,-3.38057,36.68765,Arusha City Council,,,,Arusha,Arusha,6.4
109601-5,AICC,-3.37481,36.69946,Arusha City Council,,,,Arusha,Arusha,6.4
109654-4,NEEMA,-3.3722,36.68055,Arusha City Council,,,,Arusha,Arusha,6.4
109669-2,TUMAINI,-3.36262,36.67538,Arusha City Council,,,,Arusha,Arusha,6.4
109674-2,SOWETO,-3.36538,36.68698,Arusha City Council,,,,Arusha,Arusha,6.4
109693-2,MIANZINI,-3.36148,36.68375,Arusha City Council,,,,Arusha,Arusha,6.4
109711-2,ST ELIZABETH FBO,-3.36901,36.67754,Arusha City Council,,,,Arusha,Arusha,6.4
109765-8,MOTHER MEDICAL CARE,-3.3583,36.70303,Arusha City Council,,,,Arusha,Arusha,6.4
109790-6,TANGANYIKA PACKERS,-3.40898,36.74611,Arusha City Council,,,,Arusha,Arusha,6.4
109812-8,MATEVES,-3.35945,36.60194,Arusha City Council,,,,Arusha,Arusha,6.4
109889-6,KAM MED,-3.37179,36.68804,Arusha City Council,,,,Arusha,Arusha,6.4
110462-9,SAMARITHANI,-3.41022,36.6585,Arusha City Council,,,,Arusha,Arusha,6.4
110713-5,BAMA BEBA MTOTO,,,Arusha City Council,,,,Arusha,Arusha,6.4
110715-0,LCC HURUMA,-3.41898,36.65818,Arusha City Council,,,,Arusha,Arusha,6.4
110716-8,NADOSOITO,,,Arusha City Council,,,,Arusha,Arusha,6.4
110721-8,FMM,,,Arusha City Council,,,,Arusha,Arusha,6.4
110723-4,HIGHWAY,,,Arusha City Council,,,,Arusha,Arusha,6.4
110724-2,OLJORO ROAD,-3.38639,36.66012,Arusha City Council,,,,Arusha,Arusha,6.4
110725-9,OLORIEN COMMUNITY,,,Arusha City Council,,,,Arusha,Arusha,6.4
110726-7,SHAMA,,,Arusha City Council,,,,Arusha,Arusha,6.4
110823-2,NJIRO SDA,,,Arusha City Council,,,,Arusha,Arusha,6.4
110831-5,OLASITI AMANI COGI,-3.41753,36.65603,Arusha City Council,,,,Arusha,Arusha,6.4
100308-6,BANGATA,-3.35845,36.74753,Arusha District Council,,,,Arusha,Arusha,6.4
100309-4,BANGATA LUTHERAN,-3.33578,36.7448,Arusha District Council,,,,Arusha,Arusha,6.4
100654-3,BWAWANI,-3.60778,36.84283,Arusha District Council,,,,Arusha,Arusha,6.4
100916-6,COGI NGARAMTONI,-3.31571,36.6388,Arusha District Council,,,,Arusha,Arusha,6.4
100918-2,COGI OLDONYOSAMBU,-3.14588,36.69191,Arusha District Council,,,,Arusha,Arusha,6.4
101062-8,EKENYWA HOSPITAL,-6.80749,39.24984,Arusha District Council,,,,Arusha,Arusha,6.4
101722-7,ILBORU,-3.353617,36.689233,Arusha District Council,,,,Arusha,Arusha,6.4
101800-1,IMBIBYA,-3.33523,37.37799,Arusha District Council,,,,Arusha,Arusha,6.4
102912-3,KIMNYAKI,,,Arusha District Council,,,,Arusha,Arusha,6.4
102913-1,KIMNYAKI MAASAI,-3.313,36.64154,Arusha District Council,,,,Arusha,Arusha,6.4
102981-8,KIOGA,-3.32543,36.6982,Arusha District Council,,,,Arusha,Arusha,6.4
103029-5,KIRANYI,,,Arusha District Council,,,,Arusha,Arusha,6.4
103088-1,KISERIANI,-3.45026,36.73876,Arusha District Council,,,,Arusha,Arusha,6.4
103131-9,KISONGO LUTHERAN,-3.37077,36.58481,Arusha District Council,,,,Arusha,Arusha,6.4
103468-5,LEGIJAVE,-3.22259,36.6029,Arusha District Council,,,,Arusha,Arusha,6.4
103487-5,LESIRAA,,,Arusha District Council,,,,Arusha,Arusha,6.4
103512-0,LIKAMBA,-3.32382,36.54664,Arusha District Council,,,,Arusha,Arusha,6.4
103589-8,LOSINONI,-3.13209,36.72001,Arusha District Council,,,,Arusha,Arusha,6.4
103805-8,M&M KIWERA,-3.3592,36.66018,Arusha District Council,,,,Arusha,Arusha,6.4
104283-7,MANYIRE,,,Arusha District Council,,,,Arusha,Arusha,6.4
104673-9,MBUYUNI,-3.574294,36.65867,Arusha District Council,,,,Arusha,Arusha,6.4
105192-9,MLANGARINI,-3.44595,36.78874,Arusha District Council,,,,Arusha,Arusha,6.4
105273-7,MOIVO,-3.350111,36.70016,Arusha District Council,,,,Arusha,Arusha,6.4
105691-0,MUNGUSHI,-3.53059,36.83493,Arusha District Council,,,,Arusha,Arusha,6.4
105715-7,MUSA,-3.32405,36.520461,Arusha District Council,,,,Arusha,Arusha,6.4
105908-8,MWANDET,-3.240352,36.538173,Arusha District Council,,,,Arusha,Arusha,6.4
106287-6,NDURUMA,-3.48,36.7931,Arusha District Council,,,,Arusha,Arusha,6.4
106388-2,NGIRES,-3.33731,36.7346,Arusha District Council,,,,Arusha,Arusha,6.4
106418-7,NGORBOBO,-3.37559,36.57303,Arusha District Council,,,,Arusha,Arusha,6.4
106898-0,OLDADAI,-3.356071,36.73511,Arusha District Council,,,,Arusha,Arusha,6.4
106900-4,OLDONYO SAMBU,-3.15592,36.68288,Arusha District Council,,,,Arusha,Arusha,6.4
106903-8,OLDONYOSAPUK,-3.3292,36.7094,Arusha District Council,,,,Arusha,Arusha,6.4
106904-6,OLDONYOWASI,-3.16025,36.703,Arusha District Council,,,,Arusha,Arusha,6.4
106906-1,OLGILAI,-3.34238,36.72191,Arusha District Council,,,,Arusha,Arusha,6.4
106913-7,OLKOKOLA,-3.24666,36.64528,Arusha District Council,,,,Arusha,Arusha,6.4
106914-5,OLKOKOLA RC,-3.26578,36.616,Arusha District Council,,,,Arusha,Arusha,6.4
106917-8,OLMOTONYI,-3.29021,36.65643,Arusha District Council,,,,Arusha,Arusha,6.4
106922-8,OLTRUMENT,-3.30344,36.60487,Arusha District Council,,,,Arusha,Arusha,6.4
106947-5,PAG KISONGO,-3.37391,36.57036,Arusha District Council,,,,Arusha,Arusha,6.4
107338-6,KISONGO SDA,,,Arusha District Council,,,,Arusha,Arusha,6.4
107818-7,THEMI YA SIMBA,-3.58101,36.78534,Arusha District Council,,,,Arusha,Arusha,6.4
109462-2,ESTHER NGARAMTONI,-3.31241,36.64039,Arusha District Council,,,,Arusha,Arusha,6.4
109536-3,KISONGO CHARITABLE,-3.372103,36.570253,Arusha District Council,,,,Arusha,Arusha,6.4
109545-4,SAMBASHA,-3.293279,36.673411,Arusha District Council,,,,Arusha,Arusha,6.4
109595-9,SELIAN,-3.32548,36.6501,Arusha District Council,,,,Arusha,Arusha,6.4
109600-7,SOS,-3.30779,36.63874,Arusha District Council,,,,Arusha,Arusha,6.4
109688-2,SIHA,-3.34957,36.65137,Arusha District Council,,,,Arusha,Arusha,6.4
109720-3,OLJORO,-3.54043,36.65061,Arusha District Council,,,,Arusha,Arusha,6.4
109788-0,ESSOKA,-3.60492,36.66354,Arusha District Council,,,,Arusha,Arusha,6.4
109813-6,MIRONGOINE,-3.60759,36.66324,Arusha District Council,,,,Arusha,Arusha,6.4
110711-9,NGARAMTONI,,,Arusha District Council,,,,Arusha,Arusha,6.4
100183-3,ARRI TSAAYO,-4.24142,35.58945,Babati District Council,,,,Babati,Babati,1.51
100203-9,AYASANDA,-4.33594,35.69565,Babati District Council,,,,Babati,Babati,1.51
100336-7,BASHNET,-4.21978,35.4209,Babati District Council,,,,Babati,Babati,1.51
100942-2,DABIL,-4.33427,35.43401,Babati District Council,,,,Babati,Babati,1.51
100952-1,DAREDA KATI DISPENSARY,-4.2178,35.55334,Babati District Council,,,,Babati,Babati,1.51
100954-7,DAREDA MISSION,-4.2402,35.49297,Babati District Council,,,,Babati,Babati,1.51
100992-7,DOHOM,,,Babati District Council,,,,Babati,Babati,1.51
101042-0,DURU,-4.31917,35.5972,Babati District Council,,,,Babati,Babati,1.51
101082-6,ENDABEG,-4.25317,35.66211,Babati District Council,,,,Babati,Babati,1.51
101083-4,ENDAGWE,-4.35535,35.64857,Babati District Council,,,,Babati,Babati,1.51
101086-7,ENDAKISO,-4.20881,35.89037,Babati District Council,,,,Babati,Babati,1.51
101174-1,GALLAPO,-4.27448,35.85022,Babati District Council,,,,Babati,Babati,1.51
101189-9,GEDAMAR,-4.27828,35.89154,Babati District Council,,,,Babati,Babati,1.51
101212-9,GICHAMEDA,-3.97266,35.71631,Babati District Council,,,,Babati,Babati,1.51
101217-8,GIDAS,-4.42089,35.68066,Babati District Council,,,,Babati,Babati,1.51
103046-9,KIRU,-4.1205,35.68063,Babati District Council,,,,Babati,Babati,1.51
103126-9,KISNGAJI,-3.91603,35.73258,Babati District Council,,,,Babati,Babati,1.51
103618-5,LUCMANDA,-4.25657,35.31042,Babati District Council,,,,Babati,Babati,1.51
103870-2,MADUNGA,-4.13426,35.4413,Babati District Council,,,,Babati,Babati,1.51
103909-8,MAGARA,-3.80612,35.69783,Babati District Council,,,,Babati,Babati,1.51
103993-2,MAGUGU,-4.00028,35.77902,Babati District Council,,,,Babati,Babati,1.51
104211-8,MAMIRE,-4.1558,35.84129,Babati District Council,,,,Babati,Babati,1.51
104322-3,BIKIRA MARIA EMAKULATA,-4.20493,35.57602,Babati District Council,,,,Babati,Babati,1.51
104509-5,MAWEMAIRO,-4.05706,35.76117,Babati District Council,,,,Babati,Babati,1.51
104522-8,MAYOKA,-3.72426,35.71843,Babati District Council,,,,Babati,Babati,1.51
104744-8,MERR,-4.10739,35.58061,Babati District Council,,,,Babati,Babati,1.51
104948-5,MINJINGU,-3.70156,35.92848,Babati District Council,,,,Babati,Babati,1.51
105801-5,MWADA,-3.54274,35.4878,Babati District Council,,,,Babati,Babati,1.51
106019-3,MWIKANTSI,-4.13649,35.86707,Babati District Council,,,,Babati,Babati,1.51
106199-3,NAR,-4.18138,35.4093,Babati District Council,,,,Babati,Babati,1.51
106508-5,NKAITI,-3.73102,35.94225,Babati District Council,,,,Babati,Babati,1.51
107044-0,QAMEYU,-4.18902,35.48317,Babati District Council,,,,Babati,Babati,1.51
107047-3,QASH,-4.32285,35.86963,Babati District Council,,,,Babati,Babati,1.51
107089-5,RIRODA,-4.18033,35.3892,Babati District Council,,,,Babati,Babati,1.51
107277-6,SANGAIWE,-3.94035,35.82351,Babati District Council,,,,Babati,Babati,1.51
107341-0,SECHEDA,-4.27833,35.26288,Babati District Council,,,,Babati,Babati,1.51
107400-4,SHAURIMOYO,-3.91395,35.69272,Babati District Council,,,,Babati,Babati,1.51
107772-6,TARANGIRE,-3.75304,35.97075,Babati District Council,,,,Babati,Babati,1.51
108013-4,UFANA,-4.24476,35.36119,Babati District Council,,,,Babati,Babati,1.51
108262-7,VILIMAVITATU,-3.77939,35.86214,Babati District Council,,,,Babati,Babati,1.51
108333-6,WAZAZI GALLAPO,-4.28408,35.85386,Babati District Council,,,,Babati,Babati,1.51
108339-3,WAZAZI MAGUGU,-3.99993,35.77722,Babati District Council,,,,Babati,Babati,1.51
108397-1,ZACI,-4.28134,35.85075,Babati District Council,,,,Babati,Babati,1.51
109512-4,BASHNET,-4.23058,35.42924,Babati District Council,,,,Babati,Babati,1.51
110705-1,RIRODA PUBLIC DISPENSARY,-4.3006,35.64895,Babati District Council,,,,Babati,Babati,1.51
100109-8,AMANI,,,Babati Town Council,,,,Babati,Babati,1.51
100211-2,BABATI,,,Babati Town Council,,,,Babati,Babati,1.51
100411-8,BONGA,-4.20957,35.443,Babati Town Council,,,,Babati,Babati,1.51
102987-5,KIONGOZI,-4.6559,35.4553,Babati Town Council,,,,Babati,Babati,1.51
103920-5,MAGEREZA,-4.12412,35.445727,Babati Town Council,,,,Babati,Babati,1.51
104168-0,MALANGI,,,Babati Town Council,,,,Babati,Babati,1.51
104279-5,MANYARA,,,Babati Town Council,,,,Babati,Babati,1.51
107021-8,POLISI,-4.12836,35.4433,Babati Town Council,,,,Babati,Babati,1.51
107067-1,RC MISSION,-4.21125,35.74022,Babati Town Council,,,,Babati,Babati,1.51
107911-0,TUMAINI,-4.13411,35.4494,Babati Town Council,,,,Babati,Babati,1.51
108330-2,WAZAZI,-4.13055,35.4496,Babati Town Council,,,,Babati,Babati,1.51
108515-8,SABILO,-4.21375,35.73888,Babati Town Council,,,,Babati,Babati,1.51
100221-1,BAGAMOYO,-6.26231,38.5443,Bagamoyo District Council,,,,Bagamoyo,Bagamoyo,0
100341-7,BAUBAB,-6.36399,38.0411,Bagamoyo District Council,,,,Bagamoyo,Bagamoyo,0
100653-5,BWAWANI,,,Bagamoyo District Council,,,,Bagamoyo,Bagamoyo,0
100706-1,CHALINZE,-6.63666,38.35381,Bagamoyo District Council,,,,Bagamoyo,Bagamoyo,0
100707-9,CHALINZE RC,-6.64044,38.3667,Bagamoyo District Council,,,,Bagamoyo,Bagamoyo,0
100717-8,CHAMBEZI,-6.33326,38.55012,Bagamoyo District Council,,,,Bagamoyo,Bagamoyo,0
100903-4,CHACHA WAMBURA,-6.26708,38.5399,Bagamoyo District Council,,,,Bagamoyo,Bagamoyo,0
101109-7,EPIPHENY,-6.27229,38.5388,Bagamoyo District Council,,,,Bagamoyo,Bagamoyo,0
101157-6,FUKAYOSI,-6.41253,38.674,Bagamoyo District Council,,,,Bagamoyo,Bagamoyo,0
101387-9,HONDOGO,-6.10527,38.2408,Bagamoyo District Council,,,,Bagamoyo,Bagamoyo,0
102352-2,KAOLE,-6.27681,38.5631,Bagamoyo District Council,,,,Bagamoyo,Bagamoyo,0
102545-1,KEREGE,-6.35214,38.0272,Bagamoyo District Council,,,,Bagamoyo,Bagamoyo,0
102601-2,KIBINDU,-5.59593,37.5536,Bagamoyo District Council,,,,Bagamoyo,Bagamoyo,0
102665-7,KIDOGOZERO,-6.65231,38.7058,Bagamoyo District Council,,,,Bagamoyo,Bagamoyo,0
102683-0,KIFULETA,-6.09652,38.2047,Bagamoyo District Council,,,,Bagamoyo,Bagamoyo,0
102724-2,KIGONGONI,-6.46261,38.8661,Bagamoyo District Council,,,,Bagamoyo,Bagamoyo,0
102898-4,KIMANGE,-6.41285,38.3066,Bagamoyo District Council,,,,Bagamoyo,Bagamoyo,0
103041-0,KIROMO,-6.30701,38.56352,Bagamoyo District Council,,,,Bagamoyo,Bagamoyo,0
103224-2,KIWANGWA,-6.36998,38.5812,Bagamoyo District Council,,,,Bagamoyo,Bagamoyo,0
103303-4,KONGO,-6.32751,39.5063,Bagamoyo District Council,,,,Bagamoyo,Bagamoyo,0
103373-7,KWAMDUMA,-6.01895,38.0745,Bagamoyo District Council,,,,Bagamoyo,Bagamoyo,0
103379-4,KWAMSANJA,-6.08298,38.0182,Bagamoyo District Council,,,,Bagamoyo,Bagamoyo,0
103385-1,KWANGWANDU,-5.96211,38.2255,Bagamoyo District Council,,,,Bagamoyo,Bagamoyo,0
103389-3,KWARUHOMBO,-6.08572,38.1342,Bagamoyo District Council,,,,Bagamoyo,Bagamoyo,0
103400-8,KWEIKONJE,-5.59636,38.2204,Bagamoyo District Council,,,,Bagamoyo,Bagamoyo,0
103596-3,LOWER RUVU,-6.32968,38.49694,Bagamoyo District Council,,,,Bagamoyo,Bagamoyo,0
103643-3,LUGOBA,-6.27782,38.1983,Bagamoyo District Council,,,,Bagamoyo,Bagamoyo,0
103644-1,LUGOBA MISSION,-6.45537,38.3315,Bagamoyo District Council,,,,Bagamoyo,Bagamoyo,0
103645-8,LUGOBA SECONDARY,-6.45483,38.332,Bagamoyo District Council,,,,Bagamoyo,Bagamoyo,0
104146-6,MAKURUNGE,-6.4725,38.7827,Bagamoyo District Council,,,,Bagamoyo,Bagamoyo,0
104224-1,MANDAMAZINGO,-6.02963,38.3134,Bagamoyo District Council,,,,Bagamoyo,Bagamoyo,0
104233-2,MANDERA,-6.12878,38.2444,Bagamoyo District Council,,,,Bagamoyo,Bagamoyo,0
104301-7,MAPINGA,-6.35359,38.0365,Bagamoyo District Council,,,,Bagamoyo,Bagamoyo,0
104410-6,MASIMBANI,-6.02254,38.24925,Bagamoyo District Council,,,,Bagamoyo,Bagamoyo,0
104425-4,MASUGURU,-6.35717,38.4725,Bagamoyo District Council,,,,Bagamoyo,Bagamoyo,0
104450-2,MATAYA,-6.31472,38.5376,Bagamoyo District Council,,,,Bagamoyo,Bagamoyo,0
104471-8,MATIPWILI,-6.13877,38.4271,Bagamoyo District Council,,,,Bagamoyo,Bagamoyo,0
104486-6,MATULI,-6.66109,38.2438,Bagamoyo District Council,,,,Bagamoyo,Bagamoyo,0
104587-1,MBEGANI,-6.28397,38.5813,Bagamoyo District Council,,,,Bagamoyo,Bagamoyo,0
104686-1,MBWEWE,-6.07665,38.2464,Bagamoyo District Council,,,,Bagamoyo,Bagamoyo,0
104826-3,MICO,-6.40475,38.134,Bagamoyo District Council,,,,Bagamoyo,Bagamoyo,0
104892-5,MIHUGA,-6.11034,38.2971,Bagamoyo District Council,,,,Bagamoyo,Bagamoyo,0
104955-0,MIONO,-6.07177,38.2471,Bagamoyo District Council,,,,Bagamoyo,Bagamoyo,0
105053-3,MKANGE,-6.04375,38.3372,Bagamoyo District Council,,,,Bagamoyo,Bagamoyo,0
105065-7,MKENGE,-6.46415,38.5798,Bagamoyo District Council,,,,Bagamoyo,Bagamoyo,0
105085-5,MKOKO,,,Bagamoyo District Council,,,,Bagamoyo,Bagamoyo,0
105209-1,MLINGOTINI,-6.28779,38.5986,Bagamoyo District Council,,,,Bagamoyo,Bagamoyo,0
105443-6,MSATA,-6.33492,38.3895,Bagamoyo District Council,,,,Bagamoyo,Bagamoyo,0
105476-6,MSINUNE,-6.39993,38.5569,Bagamoyo District Council,,,,Bagamoyo,Bagamoyo,0
105483-2,MSOGA,-6.33746,38.1871,Bagamoyo District Council,,,,Bagamoyo,Bagamoyo,0
106202-5,NARCO,-6.67701,38.65081,Bagamoyo District Council,,,,Bagamoyo,Bagamoyo,0
107026-7,PONGWE KIONA,-6.18032,38.242,Bagamoyo District Council,,,,Bagamoyo,Bagamoyo,0
107167-9,RUPUNGWI,-6.16246,38.3454,Bagamoyo District Council,,,,Bagamoyo,Bagamoyo,0
107223-0,SADANI,,,Bagamoyo District Council,,,,Bagamoyo,Bagamoyo,0
107580-3,ST. ELIZABETH,-6.2609,38.5389,Bagamoyo District Council,,,,Bagamoyo,Bagamoyo,0
107718-9,TYMA,-6.45887,38.3281,Bagamoyo District Council,,,,Bagamoyo,Bagamoyo,0
107720-5,TALAWANDA,-6.49258,38.46635,Bagamoyo District Council,,,,Bagamoyo,Bagamoyo,0
107894-8,TUKAMISASA,-6.67196,38.2224,Bagamoyo District Council,,,,Bagamoyo,Bagamoyo,0
107990-4,UBENA ESTATE,-6.62276,38.1962,Bagamoyo District Council,,,,Bagamoyo,Bagamoyo,0
107991-2,UBENA PRISON,-6.63529,38.1669,Bagamoyo District Council,,,,Bagamoyo,Bagamoyo,0
108252-8,VIGWAZA,-6.67562,38.6177,Bagamoyo District Council,,,,Bagamoyo,Bagamoyo,0
108269-2,VISEZI,-6.74423,38.631,Bagamoyo District Council,,,,Bagamoyo,Bagamoyo,0
108388-0,YOMBO,-6.34886,38.5102,Bagamoyo District Council,,,,Bagamoyo,Bagamoyo,0
108417-7,ZINGA,-6.31927,38.592,Bagamoyo District Council,,,,Bagamoyo,Bagamoyo,0
108452-4,MILO,-6.34585,38.4473,Bagamoyo District Council,,,,Bagamoyo,Bagamoyo,0
108502-6,UBENA ZOMOZI,,,Bagamoyo District Council,,,,Bagamoyo,Bagamoyo,0
108514-1,REKO,,,Bagamoyo District Council,,,,Bagamoyo,Bagamoyo,0
108593-5,IMANI HBC- VCT CLINIC,-6.63808,38.34507,Bagamoyo District Council,,,,Bagamoyo,Bagamoyo,0
109231-1,KITUO CHA MAARIFA YA JAMII,,,Bagamoyo District Council,,,,Bagamoyo,Bagamoyo,0
110145-0,SALENI,-6.25,38.2,Bagamoyo District Council,,,,Bagamoyo,Bagamoyo,0
110149-2,MAKOMBE,-6.68711,38.68952,Bagamoyo District Council,,,,Bagamoyo,Bagamoyo,0
110153-4,GONGO,-6.10004,38.35906,Bagamoyo District Council,,,,Bagamoyo,Bagamoyo,0
100194-0,ASANJE,-5.734873,35.72171,Bahi District Council,,,,Bahi,Bahi,0
100215-3,BABAYU,-5.638693,35.703269,Bahi District Council,,,,Bahi,Bahi,0
100227-8,BAHI,-5.96258,35.312075,Bahi District Council,,,,Bahi,Bahi,0
100228-6,BAHI MAKULU,-5.838564,35.451911,Bahi District Council,,,,Bahi,Bahi,0
100229-4,BAHI RC,-5.94521,35.312127,Bahi District Council,,,,Bahi,Bahi,0
100315-1,BANKOLO,-5.838545,35.451914,Bahi District Council,,,,Bahi,Bahi,0
100703-8,CHALI ISANGHA,-6.250782,35.234579,Bahi District Council,,,,Bahi,Bahi,0
100775-6,CHIBELELA,-6.403992,35.707712,Bahi District Council,,,,Bahi,Bahi,0
100787-1,CHIFUKUTA,-6.602577,35.334406,Bahi District Council,,,,Bahi,Bahi,0
100790-5,CHIGULUKA,-6.327717,35.431264,Bahi District Council,,,,Bahi,Bahi,0
100799-6,CHIKOLA,-6.178904,35.418429,Bahi District Council,,,,Bahi,Bahi,0
100803-6,CHIKOPELO,-5.30986,35.3059,Bahi District Council,,,,Bahi,Bahi,0
100818-4,CHIMENDELI,-6.11575,35.3945,Bahi District Council,,,,Bahi,Bahi,0
100834-1,CHIPANGA,-6.252359,35.358247,Bahi District Council,,,,Bahi,Bahi,0
101437-2,IBIHWA,-6.005476,35.432887,Bahi District Council,,,,Bahi,Bahi,0
101453-9,IBUGULE,-6.419891,35.557223,Bahi District Council,,,,Bahi,Bahi,0
101741-7,ILINDI,-5.948311,35.542796,Bahi District Council,,,,Bahi,Bahi,0
101885-2,ISANGHA,-6.37873,35.6661,Bahi District Council,,,,Bahi,Bahi,0
102733-3,KIGWE,-6.095235,35.492293,Bahi District Council,,,,Bahi,Bahi,0
103305-9,KONGOGO,-5.651559,35.608366,Bahi District Council,,,,Bahi,Bahi,0
103456-0,LAMAITI,-5.7832,35.6201,Bahi District Council,,,,Bahi,Bahi,0
103680-5,LUKALI DISPENSARY,-5.724434,35.50562,Bahi District Council,,,,Bahi,Bahi,0
103891-8,MAGAGA,-6.498825,35.371446,Bahi District Council,,,,Bahi,Bahi,0
104076-5,MAKANDA,,,Bahi District Council,,,,Bahi,Bahi,0
104941-0,MINDOLA,-5.886872,35.53162,Bahi District Council,,,,Bahi,Bahi,0
105100-2,MKONDAI,-5.844327,35.762479,Bahi District Council,,,,Bahi,Bahi,0
105253-9,MNKOLA,-5.90769,35.4416,Bahi District Council,,,,Bahi,Bahi,0
105328-9,MPALANGA,,,Bahi District Council,,,,Bahi,Bahi,0
105331-3,MPAMATWA,-6.00551,35.432867,Bahi District Council,,,,Bahi,Bahi,0
105346-1,MPANGWE,-6.629597,35.693211,Bahi District Council,,,,Bahi,Bahi,0
105477-4,MSISI,-5.839891,35.625224,Bahi District Council,,,,Bahi,Bahi,0
105574-8,MTITAA,-6.43773,35.595,Bahi District Council,,,,Bahi,Bahi,0
105684-5,MUNDEMU,-5.925784,35.68504,Bahi District Council,,,,Bahi,Bahi,0
106016-9,MWIITIKIRA,-6.526358,35.664168,Bahi District Council,,,,Bahi,Bahi,0
106055-7,MZOGOLE,-5.20482,35.5328,Bahi District Council,,,,Bahi,Bahi,0
106381-7,NGHULUGANO,-6.124589,35.433161,Bahi District Council,,,,Bahi,Bahi,0
106517-6,NKHOME,-6.339067,35.562813,Bahi District Council,,,,Bahi,Bahi,0
106565-5,NONDWA,-6.427501,35.333425,Bahi District Council,,,,Bahi,Bahi,0
108407-8,ZANKA,-5.844277,35.762478,Bahi District Council,,,,Bahi,Bahi,0
108412-8,ZEJELE,-6.39697,35.393963,Bahi District Council,,,,Bahi,Bahi,0
100306-0,BANEMHI,-2.62339,34.0455,Bariadi District Council,,,,Bariadi,Bariadi,0
100667-5,BYUNA,-2.57252,34.15545,Bariadi District Council,,,,Bariadi,Bariadi,0
101045-3,DUTWA,-2.49803,33.97798,Bariadi District Council,,,,Bariadi,Bariadi,0
101046-1,DUTWA - AICT,,,Bariadi District Council,,,,Bariadi,Bariadi,0
101179-0,GAMBOSI,-2.60747,33.34843,Bariadi District Council,,,,Bariadi,Bariadi,0
101185-7,GASUMA,-2.52437,34.11574,Bariadi District Council,,,,Bariadi,Bariadi,0
101211-1,GIBESHI,-2.43991,34.1967,Bariadi District Council,,,,Bariadi,Bariadi,0
101298-8,HALAWA,-2.47756,34.23553,Bariadi District Council,,,,Bariadi,Bariadi,0
101538-7,IGEGU,-2.422808,33.9613,Bariadi District Council,,,,Bariadi,Bariadi,0
101688-0,IKUNGULYABASHASHI,-2.60944,33.94662,Bariadi District Council,,,,Bariadi,Bariadi,0
102443-9,KASOLI,-2.57859,34.67841,Bariadi District Council,,,,Bariadi,Bariadi,0
104397-5,MASEWA,-2.34717,34.00426,Bariadi District Council,,,,Bariadi,Bariadi,0
104480-9,MATONGO I,-2.36338,34.08598,Bariadi District Council,,,,Bariadi,Bariadi,0
104992-3,MISWAKI,-2.57921,33.80434,Bariadi District Council,,,,Bariadi,Bariadi,0
105891-6,MWAMLAPA,-2.63624,34.66702,Bariadi District Council,,,,Bariadi,Bariadi,0
105974-0,MWASINASI,-2.662,34.27333,Bariadi District Council,,,,Bariadi,Bariadi,0
105976-5,MWASUBUYA,-2.60984,33.76779,Bariadi District Council,,,,Bariadi,Bariadi,0
106369-2,NGEME,-3.0345,33.85993,Bariadi District Council,,,,Bariadi,Bariadi,0
106530-9,NKOLOLO,-2.64145,34.16044,Bariadi District Council,,,,Bariadi,Bariadi,0
106727-1,NYAMIKOMA,-2.30318,34.96599,Bariadi District Council,,,,Bariadi,Bariadi,0
106746-1,NYAMSWA,-2.6445,33.80844,Bariadi District Council,,,,Bariadi,Bariadi,0
106834-5,NYAWA,-2.45944,34.13062,Bariadi District Council,,,,Bariadi,Bariadi,0
107242-0,SAKWE,-2.76766,33.85957,Bariadi District Council,,,,Bariadi,Bariadi,0
107300-6,SAPIWI,-2.37285,33.96306,Bariadi District Council,,,,Bariadi,Bariadi,0
107541-5,SONGAMBELE RC,-2.64311,34.16288,Bariadi District Council,,,,Bariadi,Bariadi,0
108781-6,IKUNGULWAMBESI DISPENSARY,-2.57982,33.72621,Bariadi District Council,,,,Bariadi,Bariadi,0
109219-6,WAZAZI DUTWA,-2.56819,33.96827,Bariadi District Council,,,,Bariadi,Bariadi,0
109221-2,KILABELA,-2.542232,34.05026,Bariadi District Council,,,,Bariadi,Bariadi,0
109672-6,MATONGO GEREZANI,,,Bariadi District Council,,,,Bariadi,Bariadi,0
100000-9,BUPANDAGILA - SDA,-2.64496,34.01009,Bariadi Town Council,,,,Bariadi,Bariadi,0
100327-6,BARIADI,-2.7757,33.99557,Bariadi Town Council,,,,Bariadi,Bariadi,0
100328-4,BARIADI-MAGEREZA,,,Bariadi Town Council,,,,Bariadi,Bariadi,0
100562-8,BUNAMHALA CHUONI,-2.85696,34.01386,Bariadi Town Council,,,,Bariadi,Bariadi,0
100984-4,DITIMA,-2.65201,33.87073,Bariadi Town Council,,,,Bariadi,Bariadi,0
101010-7,DR. MADUHU,-2.80901,33.98333,Bariadi Town Council,,,,Bariadi,Bariadi,0
101020-6,DR. MWIJAGE,,,Bariadi Town Council,,,,Bariadi,Bariadi,0
101878-7,ISANGA,-2.3552,33.9713,Bariadi Town Council,,,,Bariadi,Bariadi,0
104042-7,MAJAHIDA AICT,-2.83488,33.99275,Bariadi Town Council,,,,Bariadi,Bariadi,0
104443-7,MATALE SOMANDA,,,Bariadi Town Council,,,,Bariadi,Bariadi,0
105737-1,MUUNGANO,-2.79784,33.39178,Bariadi Town Council,,,,Bariadi,Bariadi,0
105828-8,MWAKIBUGA,-2.56411,33.8333,Bariadi Town Council,,,,Bariadi,Bariadi,0
105897-3,MWANALEGUMA,-2.80237,33.99191,Bariadi Town Council,,,,Bariadi,Bariadi,0
106437-7,NGULYATI,-2.69472,33.33956,Bariadi Town Council,,,,Bariadi,Bariadi,0
106833-7,NYAUMATA,-2.73737,33.96858,Bariadi Town Council,,,,Bariadi,Bariadi,0
106893-1,OLD MASWA,-2.68237,33.9943,Bariadi Town Council,,,,Bariadi,Bariadi,0
108819-4,GUDUWE DISPENSARY,-2.68351,33.92673,Bariadi Town Council,,,,Bariadi,Bariadi,0
109673-4,NYANGOKOLWA,,,Bariadi Town Council,,,,Bariadi,Bariadi,0
109705-4,KILULU,,,Bariadi Town Council,,,,Bariadi,Bariadi,0
110371-2,SIMIYU VISION CENTRE.,,,Bariadi Town Council,,,,Bariadi,Bariadi,0
110372-0,SIMIYU VISION CENTRE.,,,Bariadi Town Council,,,,Bariadi,Bariadi,0
100361-5,BIHARAMULO DDH,-2.63381,31.3447,Biharamulo District Council,,,,Biharamulo,Biharamulo,0.78
102242-5,KALENGE,-3.15412,31.0654,Biharamulo District Council,,,,Biharamulo,Biharamulo,0.78
102326-6,KANIHA,-3.28951,31.42389,Biharamulo District Council,,,,Biharamulo,Biharamulo,0.78
102447-0,KASOZIBAKAYA,-2.81081,31.68854,Biharamulo District Council,,,,Biharamulo,Biharamulo,0.78
102459-5,KATAHOKA,-2.4407,31.23512,Biharamulo District Council,,,,Biharamulo,Biharamulo,0.78
102478-5,KATOKE,-2.33928,31.2143,Biharamulo District Council,,,,Biharamulo,Biharamulo,0.78
102783-8,KIKOMAKOMA,-2.87461,31.40698,Biharamulo District Council,,,,Biharamulo,Biharamulo,0.78
103747-2,LUSAHUNGA,-2.90015,31.2009,Biharamulo District Council,,,,Biharamulo,Biharamulo,0.78
104500-4,MAVOTA,-3.03723,31.22234,Biharamulo District Council,,,,Biharamulo,Biharamulo,0.78
104615-0,MBINDI,-2.89426,31.45491,Biharamulo District Council,,,,Biharamulo,Biharamulo,0.78
106637-2,NYABUGOMBE,-2.63293,30.9391,Biharamulo District Council,,,,Biharamulo,Biharamulo,0.78
106642-2,NYABUSOZI,-2.83972,31.45816,Biharamulo District Council,,,,Biharamulo,Biharamulo,0.78
106658-8,NYAKAHURA,-2.8241,30.97326,Biharamulo District Council,,,,Biharamulo,Biharamulo,0.78
106660-4,NYAKANAZI,-3.1097,31.13726,Biharamulo District Council,,,,Biharamulo,Biharamulo,0.78
106691-9,NYAMAHANGA,,,Biharamulo District Council,,,,Biharamulo,Biharamulo,0.78
106723-0,NYAMIGOGO,-2.78899,31.64557,Biharamulo District Council,,,,Biharamulo,Biharamulo,0.78
106789-1,NYANTAKARA,-3.19253,31.36317,Biharamulo District Council,,,,Biharamulo,Biharamulo,0.78
107132-3,RUGANZU,-3.11129,31.13704,Biharamulo District Council,,,,Biharamulo,Biharamulo,0.78
107149-7,RUKALAGATA,-2.65109,31.30928,Biharamulo District Council,,,,Biharamulo,Biharamulo,0.78
107156-2,RUNAZI,-2.47482,31.25548,Biharamulo District Council,,,,Biharamulo,Biharamulo,0.78
107619-9,ST. OTTO,-2.66854,31.36311,Biharamulo District Council,,,,Biharamulo,Biharamulo,0.78
107921-9,TUMAINI,-3.03719,31.2224,Biharamulo District Council,,,,Biharamulo,Biharamulo,0.78
108547-1,TULAWAKA,,,Biharamulo District Council,,,,Biharamulo,Biharamulo,0.78
108548-9,JWTZ,-2.63157,31.33744,Biharamulo District Council,,,,Biharamulo,Biharamulo,0.78
108604-0,MAGEREZA DISPENSARY,-2.63283,31.30494,Biharamulo District Council,,,,Biharamulo,Biharamulo,0.78
108725-3,MKUNKWA,-3.26183,31.51445,Biharamulo District Council,,,,Biharamulo,Biharamulo,0.78
108745-1,MAYDAY,-2.63724,31.31327,Biharamulo District Council,,,,Biharamulo,Biharamulo,0.78
108750-1,ST. CLARA,-2.87464,31.40698,Biharamulo District Council,,,,Biharamulo,Biharamulo,0.78
109807-8,NGARARAMBE,-2.77828,31.00612,Biharamulo District Council,,,,Biharamulo,Biharamulo,0.78
100362-3,BIHARU,-4.32506,30.01874,Buhigwe District Council,,,,Buhigwe,Buhigwe,0
100475-3,BUHIGWE,-4.45099,29.92598,Buhigwe District Council,,,,Buhigwe,Buhigwe,0
101356-4,HERI-MISSION,-4.44468,29.7936,Buhigwe District Council,,,,Buhigwe,Buhigwe,0
102074-2,JANDA,-4.62413,29.8733,Buhigwe District Council,,,,Buhigwe,Buhigwe,0
102197-1,KAJANA,-4.33145,30.14784,Buhigwe District Council,,,,Buhigwe,Buhigwe,0
102454-6,KASUMO,-4.36226,30.10765,Buhigwe District Council,,,,Buhigwe,Buhigwe,0
102495-9,KATUNDU,-4.25664,30.18938,Buhigwe District Council,,,,Buhigwe,Buhigwe,0
102573-3,KIBANDE,-4.37845,29.89961,Buhigwe District Council,,,,Buhigwe,Buhigwe,0
102640-0,KIBWIGWA,-4.42307,29.84052,Buhigwe District Council,,,,Buhigwe,Buhigwe,0
102715-0,KIGOGWE,-4.79004,29.85042,Buhigwe District Council,,,,Buhigwe,Buhigwe,0
102821-6,KILELEMA,-4.15583,30.12276,Buhigwe District Council,,,,Buhigwe,Buhigwe,0
102933-9,KINAZI,-4.65894,29.83025,Buhigwe District Council,,,,Buhigwe,Buhigwe,0
103050-1,KIRUNGU,-4.65436,29.87786,Buhigwe District Council,,,,Buhigwe,Buhigwe,0
103152-5,KITAMBUKA,-4.39427,29.82432,Buhigwe District Council,,,,Buhigwe,Buhigwe,0
104877-6,MIGONGO,-4.24905,30.07818,Buhigwe District Council,,,,Buhigwe,Buhigwe,0
105237-2,MNANILA,-4.43656,29.78295,Buhigwe District Council,,,,Buhigwe,Buhigwe,0
105412-1,MSAGARA,-4.433321,29.79779,Buhigwe District Council,,,,Buhigwe,Buhigwe,0
105615-9,MUBANGA,-4.56308,29.82024,Buhigwe District Council,,,,Buhigwe,Buhigwe,0
105652-2,MUHINDA,-4.52917,29.81316,Buhigwe District Council,,,,Buhigwe,Buhigwe,0
105677-9,MULERA,-4.42145,29.94203,Buhigwe District Council,,,,Buhigwe,Buhigwe,0
105696-9,MUNYEGERA,-4.44831,30.03428,Buhigwe District Council,,,,Buhigwe,Buhigwe,0
105742-1,MUYAMA,-4.32675,30.07465,Buhigwe District Council,,,,Buhigwe,Buhigwe,0
105985-6,MWAYAYA,-4.47571,29.83673,Buhigwe District Council,,,,Buhigwe,Buhigwe,0
106675-2,NYAKIMUE,-4.47426,29.76856,Buhigwe District Council,,,,Buhigwe,Buhigwe,0
106686-9,NYAMABUYE,-4.56446,29.894,Buhigwe District Council,,,,Buhigwe,Buhigwe,0
106717-2,NYAMGALI,-4.36932,29.97372,Buhigwe District Council,,,,Buhigwe,Buhigwe,0
106784-2,NYANKORONKO,-4.48819,29.88961,Buhigwe District Council,,,,Buhigwe,Buhigwe,0
106803-0,NYARUBOZA,-4.55731,29.79658,Buhigwe District Council,,,,Buhigwe,Buhigwe,0
107169-5,RUSABA,-4.62053,29.79363,Buhigwe District Council,,,,Buhigwe,Buhigwe,0
107538-1,SONGAMBELE,-4.47753,29.97362,Buhigwe District Council,,,,Buhigwe,Buhigwe,0
108759-2,MUNZEZE,-4.72487,29.87202,Buhigwe District Council,,,,Buhigwe,Buhigwe,0
110232-6,MUGERA,-4.25012,30.12902,Buhigwe District Council,,,,Buhigwe,Buhigwe,0
100540-4,BULINDA,,,Bukoba District Council,,,,Bukoba,Bukoba,0.19
100597-4,BUSHASHA,-1.07657,31.805,Bukoba District Council,,,,Bukoba,Bukoba,0.19
100617-0,BUTAINAMWA,,,Bukoba District Council,,,,Bukoba,Bukoba,0.19
100636-0,BUZI,,,Bukoba District Council,,,,Bukoba,Bukoba,0.19
100665-9,BWIZANDURU,-1.39027,31.7639,Bukoba District Council,,,,Bukoba,Bukoba,0.19
101448-9,IBOSA,-1.24665,31.8415,Bukoba District Council,,,,Bukoba,Bukoba,0.19
101461-2,IBWERA,-1.48137,31.6308,Bukoba District Council,,,,Bukoba,Bukoba,0.19
101692-2,IKUNYU,-1.50718,31.5718,Bukoba District Council,,,,Bukoba,Bukoba,0.19
102053-6,IZIMBYA,-1.55155,31.4584,Bukoba District Council,,,,Bukoba,Bukoba,0.19
102123-7,KAAGYA DISP,,,Bukoba District Council,,,,Bukoba,Bukoba,0.19
102126-0,KABALE,-1.33273,31.7545,Bukoba District Council,,,,Bukoba,Bukoba,0.19
102191-4,KAIBANJA,-1.25119,31.34381,Bukoba District Council,,,,Bukoba,Bukoba,0.19
102233-4,KALEMA,-1.21215,31.8274,Bukoba District Council,,,,Bukoba,Bukoba,0.19
102305-0,KANAZI,-1.46256,31.7376,Bukoba District Council,,,,Bukoba,Bukoba,0.19
102436-3,KASHOZI,-1.22549,31.8078,Bukoba District Council,,,,Bukoba,Bukoba,0.19
102466-0,KATARE,-1.08723,31.8374,Bukoba District Council,,,,Bukoba,Bukoba,0.19
102480-1,KATOMA,-1.29175,31.7616,Bukoba District Council,,,,Bukoba,Bukoba,0.19
102485-0,KATORO,-1.39549,31.4958,Bukoba District Council,,,,Bukoba,Bukoba,0.19
102606-1,KIBIRIZI,,,Bukoba District Council,,,,Bukoba,Bukoba,0.19
102751-5,KIHUMULO,-1.29814,31.23671,Bukoba District Council,,,,Bukoba,Bukoba,0.19
103098-0,KISHANJE,-1.11223,31.8409,Bukoba District Council,,,,Bukoba,Bukoba,0.19
103104-6,KISHOGO,-1.3859,31.6444,Bukoba District Council,,,,Bukoba,Bukoba,0.19
103422-2,KYAMALAGE,,,Bukoba District Council,,,,Bukoba,Bukoba,0.19
103423-0,KYAMULARE,-1.40825,31.4019,Bukoba District Council,,,,Bukoba,Bukoba,0.19
104358-7,MARUKU,-1.40635,31.7931,Bukoba District Council,,,,Bukoba,Bukoba,0.19
104910-5,MIKONI,-1.54217,31.5863,Bukoba District Council,,,,Bukoba,Bukoba,0.19
105995-5,MWEMAGE,-1.31651,31.39933,Bukoba District Council,,,,Bukoba,Bukoba,0.19
106581-2,NSHESHE,-1.68484,31.4654,Bukoba District Council,,,,Bukoba,Bukoba,0.19
106674-5,NYAKIBIMBIMBI,-1.26568,31.36374,Bukoba District Council,,,,Bukoba,Bukoba,0.19
106924-4,OMBWEYA,-1.60316,31.3784,Bukoba District Council,,,,Bukoba,Bukoba,0.19
107122-4,RUBALE,-1.59787,31.5202,Bukoba District Council,,,,Bukoba,Bukoba,0.19
107134-9,RUGAZE,-1.34892,31.2574,Bukoba District Council,,,,Bukoba,Bukoba,0.19
107144-8,RUHUNGA,-1.47617,31.4377,Bukoba District Council,,,,Bukoba,Bukoba,0.19
107197-6,RWAMULUMBA,-1.3493,31.7434,Bukoba District Council,,,,Bukoba,Bukoba,0.19
108668-5,WAMATA,,,Bukoba District Council,,,,Bukoba,Bukoba,0.19
108669-3,MASHULE,-1.26605,31.23634,Bukoba District Council,,,,Bukoba,Bukoba,0.19
108670-1,NYAKABANGA,-1.33908,31.3259,Bukoba District Council,,,,Bukoba,Bukoba,0.19
108671-9,BUJUGO,,,Bukoba District Council,,,,Bukoba,Bukoba,0.19
108672-7,KIKOMERO,,,Bukoba District Council,,,,Bukoba,Bukoba,0.19
108707-1,BULILA,-1.28699,31.44692,Bukoba District Council,,,,Bukoba,Bukoba,0.19
108712-1,NSOMA,,,Bukoba District Council,,,,Bukoba,Bukoba,0.19
100474-6,BUHEMBE,-1.2867,31.80765,Bukoba Municipal Council,,,,Bukoba,Bukoba,0.19
100506-5,BUKOBA SEC. SCHOOL,,,Bukoba Municipal Council,,,,Bukoba,Bukoba,0.19
100630-3,BUYEKELA POLICELINE,-1.33783,31.81147,Bukoba Municipal Council,,,,Bukoba,Bukoba,0.19
101371-3,HINDU UNION,-1.33156,31.81241,Bukoba Municipal Council,,,,Bukoba,Bukoba,0.19
101627-8,IHUNGO SEC. SCHOOL,-1.30107,31.813513,Bukoba Municipal Council,,,,Bukoba,Bukoba,0.19
101636-9,IJUGANYONDO DISP.,-1.36647,31.39371,Bukoba Municipal Council,,,,Bukoba,Bukoba,0.19
102158-3,KAGEMU,-1.3558,31.80167,Bukoba Municipal Council,,,,Bukoba,Bukoba,0.19
102162-5,BUKOBA,,,Bukoba Municipal Council,,,,Bukoba,Bukoba,0.19
102186-4,KAHORORO,,,Bukoba Municipal Council,,,,Bukoba,Bukoba,0.19
102424-9,KASHAI,,,Bukoba Municipal Council,,,,Bukoba,Bukoba,0.19
103262-2,KJ 21 AAC,-1.32723,31.79714,Bukoba Municipal Council,,,,Bukoba,Bukoba,0.19
103927-0,MAGEREZA,-1.33592,31.81606,Bukoba Municipal Council,,,,Bukoba,Bukoba,0.19
105630-8,MUGEZA MSETO,,,Bukoba Municipal Council,,,,Bukoba,Bukoba,0.19
106578-8,NSHAMBYA DISP.,-1.31596,31.80022,Bukoba Municipal Council,,,,Bukoba,Bukoba,0.19
107129-9,RUGAMBWA,-1.34692,31.80458,Bukoba Municipal Council,,,,Bukoba,Bukoba,0.19
107193-5,RWAMISHENYE,-1.32241,31.79518,Bukoba Municipal Council,,,,Bukoba,Bukoba,0.19
107634-8,ST. THERESE,-1.32763,31.81277,Bukoba Municipal Council,,,,Bukoba,Bukoba,0.19
107758-5,TANICA,-1.35039,31.81409,Bukoba Municipal Council,,,,Bukoba,Bukoba,0.19
108406-0,ZAMZAM,-1.32763,31.81277,Bukoba Municipal Council,,,,Bukoba,Bukoba,0.19
108900-2,PRINMAT EKISHA,-1.3239,31.81975,Bukoba Municipal Council,,,,Bukoba,Bukoba,0.19
108903-6,BUKOBA TOWN,,,Bukoba Municipal Council,,,,Bukoba,Bukoba,0.19
108905-1,PRINMAT,-1.32122,31.79164,Bukoba Municipal Council,,,,Bukoba,Bukoba,0.19
100437-3,BUGANDO,-3.59509,31.95286,Bukombe District Council,,,,Bukombe,Bukombe,0
100449-8,BUGELENGA,-3.64663,32.0124,Bukombe District Council,,,,Bukombe,Bukombe,0
100510-7,BUKOMBE,-3.51464,32.0482,Bukombe District Council,,,,Bukombe,Bukombe,0
100511-5,BUKOMBE,-3.51478,32.0481,Bukombe District Council,,,,Bukombe,Bukombe,0
101696-3,IKUZI,-3.38463,31.5851,Bukombe District Council,,,,Bukombe,Bukombe,0
102042-9,IYOGELO,-3.54829,31.97368,Bukombe District Council,,,,Bukombe,Bukombe,0
104735-6,MENONITE,-3.33802,31.5233,Bukombe District Council,,,,Bukombe,Bukombe,0
107621-5,ST. PAUL,-3.46458,31.8881,Bukombe District Council,,,,Bukombe,Bukombe,0
107667-8,SUN PIO,-3.45488,31.9153,Bukombe District Council,,,,Bukombe,Bukombe,0
108177-7,USHIROMBO,-3.47096,31.90028,Bukombe District Council,,,,Bukombe,Bukombe,0
108233-8,UYOVU,-3.33583,31.52579,Bukombe District Council,,,,Bukombe,Bukombe,0
108343-5,WAZAZI MSONGA,-3.46685,31.89468,Bukombe District Council,,,,Bukombe,Bukombe,0
109197-4,WAZAZI NKOMO,-3.46442,31.89867,Bukombe District Council,,,,Bukombe,Bukombe,0
109349-1,WAZAZI DILLU,-3.33745,31.52287,Bukombe District Council,,,,Bukombe,Bukombe,0
109777-3,BAKWATA HURUMA,-3.46716,31.89541,Bukombe District Council,,,,Bukombe,Bukombe,0
100220-3,BAGA,-4.7721,38.42585,Bumbuli District Council,,,,Bumbuli,Bumbuli,0
100556-0,BUMBULI MISSION,-4.86325,38.47033,Bumbuli District Council,,,,Bumbuli,Bumbuli,0
101162-6,FUNTA,-4.90501,38.45896,Bumbuli District Council,,,,Bumbuli,Bumbuli,0
103399-2,KWEHANGALA,-4.8555,38.43845,Bumbuli District Council,,,,Bumbuli,Bumbuli,0
103410-7,KWEMKOMOLE,-4.82782,38.56577,Bumbuli District Council,,,,Bumbuli,Bumbuli,0
104020-3,MAHEZANGULU,-4.92279,38.52057,Bumbuli District Council,,,,Bumbuli,Bumbuli,0
104520-2,MAYO,-4.84177,38.51515,Bumbuli District Council,,,,Bumbuli,Bumbuli,0
104521-0,MAYO KISIWANI,-4.86259,38.4703,Bumbuli District Council,,,,Bumbuli,Bumbuli,0
104590-5,MBELEI,-4.83127,38.3985,Bumbuli District Council,,,,Bumbuli,Bumbuli,0
104676-2,MBUZII,-4.85714,38.34227,Bumbuli District Council,,,,Bumbuli,Bumbuli,0
104796-8,MGWASHI,-4.77283,38.49659,Bumbuli District Council,,,,Bumbuli,Bumbuli,0
104928-7,MILINGANO,-4.72056,38.59908,Bumbuli District Council,,,,Bumbuli,Bumbuli,0
105390-9,MPONDE VUGA,-4.55174,38.24656,Bumbuli District Council,,,,Bumbuli,Bumbuli,0
105419-6,MSAMAKA,-4.97465,38.50863,Bumbuli District Council,,,,Bumbuli,Bumbuli,0
106537-4,NKONGOI,-4.46627,38.31662,Bumbuli District Council,,,,Bumbuli,Bumbuli,0
107550-6,SONI,-4.84525,38.36966,Bumbuli District Council,,,,Bumbuli,Bumbuli,0
107627-2,ST. RAPHAEL,-4.86303,38.37465,Bumbuli District Council,,,,Bumbuli,Bumbuli,0
107731-2,TAMOTA,-4.93802,38.49394,Bumbuli District Council,,,,Bumbuli,Bumbuli,0
107856-7,TOGOTWE,-4.86861,38.4656,Bumbuli District Council,,,,Bumbuli,Bumbuli,0
108280-9,VUGA,-4.90628,38.33839,Bumbuli District Council,,,,Bumbuli,Bumbuli,0
100061-1,AICT BUNDA,-2.01881,33.872,Bunda District Council,,,,Bunda,Bunda,0
100393-8,BOMA,-2.02401,33.8627,Bunda District Council,,,,Bunda,Bunda,0
100496-9,BUKAMA SDA,,,Bunda District Council,,,,Bunda,Bunda,0
100526-3,BULAMBA,-2.13702,33.6273,Bunda District Council,,,,Bunda,Bunda,0
100565-1,BUNDA,-2.01727,33.8704,Bunda District Council,,,,Bunda,Bunda,0
100566-9,BUNDA DDH,-2.02994,33.8755,Bunda District Council,,,,Bunda,Bunda,0
100583-4,BUSAMBARA,-2.14896,33.431,Bunda District Council,,,,Bunda,Bunda,0
101277-2,GUTA,-2.0741,33.7345,Bunda District Council,,,,Bunda,Bunda,0
101404-2,HUNYARI,-1.98519,34.0784,Bunda District Council,,,,Bunda,Bunda,0
101587-4,IGUNDU,-2.07092,33.3592,Bunda District Council,,,,Bunda,Bunda,0
101652-6,IKIZU,-1.90469,34.0215,Bunda District Council,,,,Bunda,Bunda,0
101847-2,IRAMBA,-1.97744,33.3989,Bunda District Council,,,,Bunda,Bunda,0
102137-7,KABASA,-1.97002,33.8146,Bunda District Council,,,,Bunda,Bunda,0
102325-8,KANGETUTYA,-1.93633,33.7778,Bunda District Council,,,,Bunda,Bunda,0
102387-8,KARUKEKERE,-2.06709,33.5447,Bunda District Council,,,,Bunda,Bunda,0
102391-0,KASAHUNGA,-2.15067,33.5112,Bunda District Council,,,,Bunda,Bunda,0
102450-4,KASUGUTI,-2.16534,33.5821,Bunda District Council,,,,Bunda,Bunda,0
102584-0,KIBARA,,,Bunda District Council,,,,Bunda,Bunda,0
103134-3,KISORYA,-2.10852,33.2195,Bunda District Council,,,,Bunda,Bunda,0
103340-6,KUNZUGU,-2.05159,33.9156,Bunda District Council,,,,Bunda,Bunda,0
103344-8,KURUSANGA,-1.85162,34.1532,Bunda District Council,,,,Bunda,Bunda,0
104217-5,MANCHIMWERU,-1.87143,34.287,Bunda District Council,,,,Bunda,Bunda,0
104277-9,MANYAMANYAMA,-1.97732,33.8588,Bunda District Council,,,,Bunda,Bunda,0
104311-6,MARAMBEKA,-1.87716,34.0493,Bunda District Council,,,,Bunda,Bunda,0
104350-4,MARIWANDA,-1.97528,34.1439,Bunda District Council,,,,Bunda,Bunda,0
104688-7,MCHARO,-2.01478,33.9459,Bunda District Council,,,,Bunda,Bunda,0
104724-0,MEKOMARIRO,-1.835,34.203,Bunda District Council,,,,Bunda,Bunda,0
104886-7,MIHALE,-2.01715,34.0341,Bunda District Council,,,,Bunda,Bunda,0
105629-0,MUGETA,-1.93391,34.2188,Bunda District Council,,,,Bunda,Bunda,0
106025-0,MWIRURUMA,-2.03218,33.428,Bunda District Council,,,,Bunda,Bunda,0
106067-2,NAFUBA,-2.17957,33.3014,Bunda District Council,,,,Bunda,Bunda,0
106156-3,NAMUHULA,-2.07971,33.462,Bunda District Council,,,,Bunda,Bunda,0
106190-2,NANSIMO,-2.1495,33.3469,Bunda District Council,,,,Bunda,Bunda,0
106641-4,NYABURUNDU,-1.83478,34.0962,Bunda District Council,,,,Bunda,Bunda,0
106704-0,NYAMATOKE,-2.04034,34.0007,Bunda District Council,,,,Bunda,Bunda,0
106767-7,NYANGERE,-1.96326,34.0114,Bunda District Council,,,,Bunda,Bunda,0
107245-3,SALAMA A,-1.91494,34.1124,Bunda District Council,,,,Bunda,Bunda,0
107246-1,SALAMA KATI,-1.87451,34.1055,Bunda District Council,,,,Bunda,Bunda,0
107302-2,SARAWE,-1.93472,34.0297,Bunda District Council,,,,Bunda,Bunda,0
107321-2,SAZIRA,-2.0038,33.8984,Bunda District Council,,,,Bunda,Bunda,0
107678-5,SUNSI,-2.136,33.2122,Bunda District Council,,,,Bunda,Bunda,0
107723-9,TAMAU,-2.12219,33.8338,Bunda District Council,,,,Bunda,Bunda,0
108055-5,UKOMBOZI,-2.02268,33.8737,Bunda District Council,,,,Bunda,Bunda,0
108245-2,VICTORIA,-2.0379,33.8557,Bunda District Council,,,,Bunda,Bunda,0
109422-6,NYATWALI,,,Bunda District Council,,,,Bunda,Bunda,0
109456-4,KABALE,,,Bunda District Council,,,,Bunda,Bunda,0
109457-2,FARAJA PRIMATE,,,Bunda District Council,,,,Bunda,Bunda,0
109824-3,BUNDA MAGEREZA,,,Bunda District Council,,,,Bunda,Bunda,0
109869-8,BHOKE,,,Bunda District Council,,,,Bunda,Bunda,0
100218-7,BADUGU,,,Busega District Council,,,,Busega,Busega,0
100539-6,BULIMA,-2.37489,33.5629,Busega District Council,,,,Busega,Busega,0
100600-6,BUSHINGWAMHALA,,,Busega District Council,,,,Busega,Busega,0
101220-2,GININIGA,,,Busega District Council,,,,Busega,Busega,0
101522-1,IGALUKILO,-2.41046,33.7748,Busega District Council,,,,Busega,Busega,0
101633-6,IJIHA,,,Busega District Council,,,,Busega,Busega,0
102237-5,KALEMELA,-2.29663,33.7128,Busega District Council,,,,Busega,Busega,0
102757-2,KIJERESHI,,,Busega District Council,,,,Busega,Busega,0
102860-4,KILOLELI,,,Busega District Council,,,,Busega,Busega,0
103696-1,LUKUNGU,-2.22202,33.8605,Busega District Council,,,,Busega,Busega,0
103774-6,LUTUBIGA,-2.30924,33.8682,Busega District Council,,,,Busega,Busega,0
104175-5,MALILI,-2.44408,33.8061,Busega District Council,,,,Busega,Busega,0
104736-4,MENONITE LAMADI,-2.1441,33.5049,Busega District Council,,,,Busega,Busega,0
105123-4,MKULA,-2.33488,33.8758,Busega District Council,,,,Busega,Busega,0
105848-6,MWAMAGIGISI,-2.37716,33.7974,Busega District Council,,,,Busega,Busega,0
105883-3,MWAMIGONGWA,-2.4368,33.5689,Busega District Council,,,,Busega,Busega,0
105889-0,MWAMJULILA,,,Busega District Council,,,,Busega,Busega,0
105903-9,MWANANGI,-2.43651,33.5675,Busega District Council,,,,Busega,Busega,0
105936-9,MWANHALE,-2.31485,33.8101,Busega District Council,,,,Busega,Busega,0
105964-1,MWASAMBA,,,Busega District Council,,,,Busega,Busega,0
106210-8,NASSA,-2.37366,33.5849,Busega District Council,,,,Busega,Busega,0
106361-9,NGASAMO,-2.49029,33.8453,Busega District Council,,,,Busega,Busega,0
106681-0,NYALUHANDE,-2.50562,33.6114,Busega District Council,,,,Busega,Busega,0
106726-3,NYAMIKOMA,,,Busega District Council,,,,Busega,Busega,0
107412-9,SHIGALA,-2.39462,33.6805,Busega District Council,,,,Busega,Busega,0
110826-5,MUNGUKWANZA,,,Busega District Council,,,,Busega,Busega,0
101637-7,IKAMA,-9.26181,33.82516,Busokelo District Council,,,,Busokelo,Busokelo,0
101884-5,ISANGE,-9.18635,33.82245,Busokelo District Council,,,,Busokelo,Busokelo,0
101977-7,ITETE,-9.30162,33.84724,Busokelo District Council,,,,Busokelo,Busokelo,0
102283-9,KAMBASEGELA,-9.3952,33.8175,Busokelo District Council,,,,Busokelo,Busokelo,0
102342-3,KANYELELE,-9.26227,33.7671,Busokelo District Council,,,,Busokelo,Busokelo,0
102458-7,KASYABONE,-9.39949,33.86813,Busokelo District Council,,,,Busokelo,Busokelo,0
102616-0,KIBOLE,-9.34961,33.88008,Busokelo District Council,,,,Busokelo,Busokelo,0
103732-4,LUPATA,-9.300961,33.837438,Busokelo District Council,,,,Busokelo,Busokelo,0
103752-2,LUSANJE,-9.19225,33.78351,Busokelo District Council,,,,Busokelo,Busokelo,0
103765-4,LUTEBA,-9.12684,33.81125,Busokelo District Council,,,,Busokelo,Busokelo,0
104273-8,MANOW,-9.18652,33.8226,Busokelo District Council,,,,Busokelo,Busokelo,0
105334-7,MPANDA,-9.28714,33.80819,Busokelo District Council,,,,Busokelo,Busokelo,0
105354-5,MPATA,-9.26279,33.75032,Busokelo District Council,,,,Busokelo,Busokelo,0
105825-4,MWAKALELI,-9.15035,33.79253,Busokelo District Council,,,,Busokelo,Busokelo,0
105826-2,MWAKALELI LUTHERAN,-9.1597,33.81815,Busokelo District Council,,,,Busokelo,Busokelo,0
106231-4,NDALA,-9.16621,33.758,Busokelo District Council,,,,Busokelo,Busokelo,0
106592-9,NTABA,-9.42363,33.84477,Busokelo District Council,,,,Busokelo,Busokelo,0
109302-0,MBAMBO,-9.35625,33.79319,Busokelo District Council,,,,Busokelo,Busokelo,0
109318-6,LUFILYO,-9.28894,33.9008,Busokelo District Council,,,,Busokelo,Busokelo,0
109986-0,LUKASI,-9.25366,33.85977,Busokelo District Council,,,,Busokelo,Busokelo,0
109987-8,MBIGILI,-9.20854,33.82471,Busokelo District Council,,,,Busokelo,Busokelo,0
100015-7,BURUMA,-1.67623,33.83745,Butiama District Council,,,,Butiama,Butiama,0.2
100325-0,BARANGA,-1.68392,34.22873,Butiama District Council,,,,Butiama,Butiama,0.2
100375-5,BISUMWA,-1.60304,33.81003,Butiama District Council,,,,Butiama,Butiama,0.2
100473-8,BUHEMBA,-1.76362,34.0789,Butiama District Council,,,,Butiama,Butiama,0.2
100552-9,BUMANGI GOVT,-1.72267,34.00953,Butiama District Council,,,,Butiama,Butiama,0.2
100591-7,BUSEGWE,-1.72088,33.95883,Butiama District Council,,,,Butiama,Butiama,0.2
100592-5,BUSEGWE SDA,-1.70859,33.9532,Butiama District Council,,,,Butiama,Butiama,0.2
100619-6,BUTIAMA,-1.7674,33.96015,Butiama District Council,,,,Butiama,Butiama,0.2
100624-6,BUTUGURI,-1.67403,33.9528,Butiama District Council,,,,Butiama,Butiama,0.2
102290-4,KAMGENDI,-1.64677,34.07882,Butiama District Council,,,,Butiama,Butiama,0.2
102297-9,KAMUGEGI,-1.73528,33.79443,Butiama District Council,,,,Butiama,Butiama,0.2
102559-2,KIABAKARI JWTZ,-1.77209,33.8481,Butiama District Council,,,,Butiama,Butiama,0.2
102560-0,KIABAKARI MAGEREZA,-1.77482,33.8218,Butiama District Council,,,,Butiama,Butiama,0.2
102561-8,KIABAKARI RC,-1.76487,33.8598,Butiama District Council,,,,Butiama,Butiama,0.2
102562-6,KIAGATA,-1.66007,34.10725,Butiama District Council,,,,Butiama,Butiama,0.2
103163-2,KITARAMANKA,-1.71329,34.1781,Butiama District Council,,,,Butiama,Butiama,0.2
103242-4,KIZARU,-1.67646,34.04125,Butiama District Council,,,,Butiama,Butiama,0.2
103427-1,KYAWAZARWE,-1.767757,33.831531,Butiama District Council,,,,Butiama,Butiama,0.2
103904-9,MAGANA,-1.59476,33.975,Butiama District Council,,,,Butiama,Butiama,0.2
104430-4,MASURURA,-1.61483,34.02225,Butiama District Council,,,,Butiama,Butiama,0.2
104968-3,MIRWA,-1.76963,34.14423,Butiama District Council,,,,Butiama,Butiama,0.2
105951-8,MWANZABURIGA,-1.79912,33.8997,Butiama District Council,,,,Butiama,Butiama,0.2
106013-6,MWIBAGI,-1.85632,33.8392,Butiama District Council,,,,Butiama,Butiama,0.2
106629-9,NYABANGE,-1.54502,33.8663,Butiama District Council,,,,Butiama,Butiama,0.2
106630-7,NYABANGE KMT,-1.53997,33.86294,Butiama District Council,,,,Butiama,Butiama,0.2
106725-5,NYAMIKA,-1.7276,33.85627,Butiama District Council,,,,Butiama,Butiama,0.2
106736-2,NYAMISISI,-1.75527,33.8677,Butiama District Council,,,,Butiama,Butiama,0.2
106781-8,NYANKANGA,-1.58656,33.9024,Butiama District Council,,,,Butiama,Butiama,0.2
106827-9,NYASIRORI,-1.86136,33.95733,Butiama District Council,,,,Butiama,Butiama,0.2
106838-6,NYEGINA,-1.54658,33.72116,Butiama District Council,,,,Butiama,Butiama,0.2
107194-3,RWAMKOMA,-1.8078,34.0023,Butiama District Council,,,,Butiama,Butiama,0.2
107195-0,RWAMKOMA JKT,-1.83129,33.98587,Butiama District Council,,,,Butiama,Butiama,0.2
107207-3,RYAMGABO,-1.71627,33.79139,Butiama District Council,,,,Butiama,Butiama,0.2
107208-1,RYAMISANGA,-1.58792,34.06708,Butiama District Council,,,,Butiama,Butiama,0.2
107500-1,SIRORI SIMBA KMT,-1.73641,34.2289,Butiama District Council,,,,Butiama,Butiama,0.2
108355-9,WEGERO,-1.610912,34.194872,Butiama District Council,,,,Butiama,Butiama,0.2
109383-0,MURIAZA,-1.7109,33.98596,Butiama District Council,,,,Butiama,Butiama,0.2
100487-8,BUIGIRI,-6.14021,35.2266,Chamwino District Council,,,,Chamwino,Chamwino,0.64
100705-3,CHALINZE,-6.15997,36.229958,Chamwino District Council,,,,Chamwino,Chamwino,0.64
100726-9,CHAMWINO,-6.9863,36.3768,Chamwino District Council,,,,Chamwino,Chamwino,0.64
100737-6,CHANHUMBA,-6.337904,36.046607,Chamwino District Council,,,,Chamwino,Chamwino,0.64
100770-7,CHENENE,-5.569408,35.845557,Chamwino District Council,,,,Chamwino,Chamwino,0.64
100778-0,CHIBOLI,-6.856554,35.819902,Chamwino District Council,,,,Chamwino,Chamwino,0.64
100786-3,CHIFUKULO,-6.571506,35.518788,Chamwino District Council,,,,Chamwino,Chamwino,0.64
100814-3,CHILONWA,-6.039112,36.145826,Chamwino District Council,,,,Chamwino,Chamwino,0.64
100821-8,CHINANGALI I,-6.102536,36.176224,Chamwino District Council,,,,Chamwino,Chamwino,0.64
100822-6,CHINANGALI II,-6.144796,36.085071,Chamwino District Council,,,,Chamwino,Chamwino,0.64
100827-5,CHINOJE,-6.429572,36.117714,Chamwino District Council,,,,Chamwino,Chamwino,0.64
100829-1,CHINUGULU,-6.90156,35.394375,Chamwino District Council,,,,Chamwino,Chamwino,0.64
100866-3,CHIWONDO,-5.725719,36.229303,Chamwino District Council,,,,Chamwino,Chamwino,0.64
100941-4,DABALO,-5.80465,36.118325,Chamwino District Council,,,,Chamwino,Chamwino,0.64
101155-0,FUFU,-6.691409,35.977163,Chamwino District Council,,,,Chamwino,Chamwino,0.64
101279-8,GWANDI,-5.448179,36.039127,Chamwino District Council,,,,Chamwino,Chamwino,0.64
101311-9,HANDALI,-5.70716,36,Chamwino District Council,,,,Chamwino,Chamwino,0.64
101314-3,HANETI,-5.485462,35.843591,Chamwino District Council,,,,Chamwino,Chamwino,0.64
101403-4,HUMEKWA,-5.53783,35.723189,Chamwino District Council,,,,Chamwino,Chamwino,0.64
101425-7,HUZI,-6.652878,35.488961,Chamwino District Council,,,,Chamwino,Chamwino,0.64
101479-4,IDIFU,-6.436293,35.982823,Chamwino District Council,,,,Chamwino,Chamwino,0.64
101528-8,IGANDU,-6.360067,36.137459,Chamwino District Council,,,,Chamwino,Chamwino,0.64
101663-3,IKOMBOLINGA,-6.486684,35.958748,Chamwino District Council,,,,Chamwino,Chamwino,0.64
101673-2,IKOWA,-6.227441,36.149142,Chamwino District Council,,,,Chamwino,Chamwino,0.64
101716-9,ILANGALI,-6.87245,35.087,Chamwino District Council,,,,Chamwino,Chamwino,0.64
101856-3,IRINGA MVUMI,-6.48217,35.92511,Chamwino District Council,,,,Chamwino,Chamwino,0.64
101992-6,ITISO,-5.635217,36.022249,Chamwino District Council,,,,Chamwino,Chamwino,0.64
101993-4,ITISO RC,-5.63556,36.3221,Chamwino District Council,,,,Chamwino,Chamwino,0.64
102049-4,IZAVA,-5.561118,36.260151,Chamwino District Council,,,,Chamwino,Chamwino,0.64
102505-5,KAWAWA,-5.9717,36.5064,Chamwino District Council,,,,Chamwino,Chamwino,0.64
103571-6,LOJE,-6.866932,36.011202,Chamwino District Council,,,,Chamwino,Chamwino,0.64
104045-0,MAJEKELO,-6.08012,36.180559,Chamwino District Council,,,,Chamwino,Chamwino,0.64
104083-1,MAKANG'WA,-6.423481,35.867804,Chamwino District Council,,,,Chamwino,Chamwino,0.64
104216-7,MANCHALI,-6.13941,36.1676,Chamwino District Council,,,,Chamwino,Chamwino,0.64
104282-9,MANYEMBA,-5.696419,36.17278,Chamwino District Council,,,,Chamwino,Chamwino,0.64
104287-8,MANZASE,-6.606497,35.931989,Chamwino District Council,,,,Chamwino,Chamwino,0.64
104726-5,MEMBE,-5.892263,36.172407,Chamwino District Council,,,,Chamwino,Chamwino,0.64
104793-5,MGUNGA,-6.27987,36.119505,Chamwino District Council,,,,Chamwino,Chamwino,0.64
104873-5,MIGANGA,-6.426069,36.042921,Chamwino District Council,,,,Chamwino,Chamwino,0.64
105197-8,MLEBE,-6.225363,36.068599,Chamwino District Council,,,,Chamwino,Chamwino,0.64
105208-3,MLIMWA,,,Chamwino District Council,,,,Chamwino,Chamwino,0.64
105210-9,MLODA,-6.56411,35.867909,Chamwino District Council,,,,Chamwino,Chamwino,0.64
105217-4,MLOWA BWAWANI GOVERNMENT,-6.598915,35.816841,Chamwino District Council,,,,Chamwino,Chamwino,0.64
105238-0,MNASE,-6.259646,36.061245,Chamwino District Council,,,,Chamwino,Chamwino,0.64
105400-6,MPWAYUNGU,-6.70994,35.5872,Chamwino District Council,,,,Chamwino,Chamwino,0.64
105430-3,MSANGA,-6.041223,36.029084,Chamwino District Council,,,,Chamwino,Chamwino,0.64
105729-8,MUUNGANO,-6.312592,35.87229,Chamwino District Council,,,,Chamwino,Chamwino,0.64
105774-4,MVUMI MAKULU,-6.347827,35.846517,Chamwino District Council,,,,Chamwino,Chamwino,0.64
105775-1,MVUMI MISSION,-6.391801,35.898928,Chamwino District Council,,,,Chamwino,Chamwino,0.64
106069-8,NAGULO MWITIKIRA,-6.600192,35.622014,Chamwino District Council,,,,Chamwino,Chamwino,0.64
106242-1,NDEBWE,-6.36616,35.975513,Chamwino District Council,,,,Chamwino,Chamwino,0.64
106257-9,NDOGOWE,-6.921388,35.642813,Chamwino District Council,,,,Chamwino,Chamwino,0.64
106376-7,NGHAHELEZI,-6.38365,36.7289,Chamwino District Council,,,,Chamwino,Chamwino,0.64
106464-1,NHINHI,-6.58447,35.745513,Chamwino District Council,,,,Chamwino,Chamwino,0.64
106511-9,NKAMBAKU,-6.85508,35.6277,Chamwino District Council,,,,Chamwino,Chamwino,0.64
106557-2,NKWENDA,-6.478725,35.747993,Chamwino District Council,,,,Chamwino,Chamwino,0.64
107305-5,SASAJILA,-6.691306,35.885508,Chamwino District Council,,,,Chamwino,Chamwino,0.64
107345-1,SEGALA,-5.57757,36.129083,Chamwino District Council,,,,Chamwino,Chamwino,0.64
108370-8,WILIKO,-6.665385,35.764371,Chamwino District Council,,,,Chamwino,Chamwino,0.64
108371-6,WILUNZE,-6.127665,36.228355,Chamwino District Council,,,,Chamwino,Chamwino,0.64
108403-7,ZAJILWA,-5.484135,36.099494,Chamwino District Council,,,,Chamwino,Chamwino,0.64
108582-8,MLOWA BARABARANI HEALTH CENTER,-6.50046,35.839887,Chamwino District Council,,,,Chamwino,Chamwino,0.64
108619-8,NGHAMBAKU,-6.855189,35.627581,Chamwino District Council,,,,Chamwino,Chamwino,0.64
108628-9,MLOWA BWAWANI,-6.598915,35.816841,Chamwino District Council,,,,Chamwino,Chamwino,0.64
108629-7,MUUNGANO,-6.482167,35.925108,Chamwino District Council,,,,Chamwino,Chamwino,0.64
109833-4,MANDA,-6.775079,35.298047,Chamwino District Council,,,,Chamwino,Chamwino,0.64
100248-4,BAKWATA,,,Chato District Council,,,,Chato,Chato,0
100580-0,BUSAKA,-2.96956,31.73053,Chato District Council,,,,Chato,Chato,0
100638-6,BUZIKU,-2.9805,31.66348,Chato District Council,,,,Chato,Chato,0
100640-2,BUZIRAYOMBO,-2.78106,31.7802,Chato District Council,,,,Chato,Chato,0
100650-1,BWANGA,-3.0347,31.76082,Chato District Council,,,,Chato,Chato,0
100751-7,CHATO,-2.63904,31.76909,Chato District Council,,,,Chato,Chato,0
101466-1,ICHWANKIMA,-2.6111,31.55782,Chato District Council,,,,Chato,Chato,0
101607-0,IHANGA,-2.95437,31.63928,Chato District Council,,,,Chato,Chato,0
101734-2,ILEMELA,-2.62624,31.65726,Chato District Council,,,,Chato,Chato,0
101824-1,IPARAMASA,-3.15771,31.88814,Chato District Council,,,,Chato,Chato,0
102150-0,KACHWAMBA,-2.6599,31.57784,Chato District Council,,,,Chato,Chato,0
102393-6,KASALA,-2.89902,31.79016,Chato District Council,,,,Chato,Chato,0
102417-3,KASENGA,-2.63994,31.44885,Chato District Council,,,,Chato,Chato,0
102470-2,KATENDE,-2.70833,31.6792,Chato District Council,,,,Chato,Chato,0
102475-1,KATETE,-2.37528,31.68515,Chato District Council,,,,Chato,Chato,0
102592-3,KIBEHE,-2.4768,31.72818,Chato District Council,,,,Chato,Chato,0
102626-9,KIBUMBA,-2.87143,31.8498,Chato District Council,,,,Chato,Chato,0
102721-8,KIGONGO,-2.45747,31.7902,Chato District Council,,,,Chato,Chato,0
103272-1,KMT- MGANZA,,,Chato District Council,,,,Chato,Chato,0
104145-8,MAKURUGUSI,-2.91882,31.74032,Chato District Council,,,,Chato,Chato,0
105125-9,MKULIMA,,,Chato District Council,,,,Chato,Chato,0
105138-2,MKUNGO,-2.84516,31.73733,Chato District Council,,,,Chato,Chato,0
106632-3,NYABILEZI,-2.73794,31.72403,Chato District Council,,,,Chato,Chato,0
106636-4,NYABUGERA,-2.35691,31.74156,Chato District Council,,,,Chato,Chato,0
106709-9,NYAMBITI,-2.54891,31.64822,Chato District Council,,,,Chato,Chato,0
106733-9,NYAMIREMBE,-2.52618,31.7167,Chato District Council,,,,Chato,Chato,0
106790-9,NYANTIMBA,-3.00672,31.52418,Chato District Council,,,,Chato,Chato,0
107596-9,ST. JOSEPH,-2.636,31.3112,Chato District Council,,,,Chato,Chato,0
108126-4,UPENDO,,,Chato District Council,,,,Chato,Chato,0
109193-3,BAHIMBA,,,Chato District Council,,,,Chato,Chato,0
109718-7,ILYAMCHELE,-2.74155,31.61503,Chato District Council,,,,Chato,Chato,0
109747-6,BUTENGORUMASA,-3.02183,31.89297,Chato District Council,,,,Chato,Chato,0
109819-3,BUTARAMA,-2.47813,31.74878,Chato District Council,,,,Chato,Chato,0
109820-1,BUSERESERE,,,Chato District Council,,,,Chato,Chato,0
109903-5,MUUNGANO,,,Chato District Council,,,,Chato,Chato,0
100214-6,BABAYU,-5.626108,35.703579,Chemba District Council,,,,Chemba,Chemba,0
100716-0,CHAMBALO,-5.248765,35.919481,Chemba District Council,,,,Chemba,Chemba,0
100727-7,CHANDAMA,-5.144677,36.167506,Chemba District Council,,,,Chemba,Chemba,0
100750-9,CHASE,-5.594744,35.558018,Chemba District Council,,,,Chemba,Chemba,0
100899-4,CHURUKU,-5.01277,36.127732,Chemba District Council,,,,Chemba,Chemba,0
101137-8,FARKWA,-5.401141,35.616037,Chemba District Council,,,,Chemba,Chemba,0
101138-6,FARKWA VA,-5.419301,35.605937,Chemba District Council,,,,Chemba,Chemba,0
101235-0,GOIMA,-5.109651,36.005145,Chemba District Council,,,,Chemba,Chemba,0
101236-8,GOIMA VA,-5.113258,36.001519,Chemba District Council,,,,Chemba,Chemba,0
101243-4,GONGA,-5.416474,35.476411,Chemba District Council,,,,Chemba,Chemba,0
101278-0,GWANDI,-5.306971,35.818072,Chemba District Council,,,,Chemba,Chemba,0
101305-1,HAMAI,-5.050472,36.113439,Chemba District Council,,,,Chemba,Chemba,0
101997-5,ITOLWA,-5.042742,36.231495,Chemba District Council,,,,Chemba,Chemba,0
102075-9,JANGALO,-5.049334,36.203375,Chemba District Council,,,,Chemba,Chemba,0
102097-3,JOGOLO,-5.224799,35.177004,Chemba District Council,,,,Chemba,Chemba,0
102533-7,KELEMA,-5.112777,35.822232,Chemba District Council,,,,Chemba,Chemba,0
102553-5,KHUBUNKO,-5.48301,35.635516,Chemba District Council,,,,Chemba,Chemba,0
102666-5,KIDOKA,-5.407006,35.852318,Chemba District Council,,,,Chemba,Chemba,0
102972-7,KINYAMSHINDO,-5.10131,35.146862,Chemba District Council,,,,Chemba,Chemba,0
103382-8,KWAMTORO,-5.228832,35.425987,Chemba District Council,,,,Chemba,Chemba,0
103448-7,LAHODA,-5.08727,35.369638,Chemba District Council,,,,Chemba,Chemba,0
103455-2,LALTA,-5.17049,35.309635,Chemba District Council,,,,Chemba,Chemba,0
103903-1,MAGAMBUA,-5.161931,35.298382,Chemba District Council,,,,Chemba,Chemba,0
104129-2,MAKORONGO,-5.525658,35.643301,Chemba District Council,,,,Chemba,Chemba,0
105284-4,MONDO,-5.00688,35.93571,Chemba District Council,,,,Chemba,Chemba,0
105315-6,MOTO,-5.332992,35.380476,Chemba District Council,,,,Chemba,Chemba,0
105358-6,MPENDO,-5.663642,35.353918,Chemba District Council,,,,Chemba,Chemba,0
105405-5,MRIJO,-5.179099,36.293498,Chemba District Council,,,,Chemba,Chemba,0
105410-5,MSAADA,-5.35993,36.24116,Chemba District Council,,,,Chemba,Chemba,0
105819-7,MWAIKISABE,-5.341774,36.132044,Chemba District Council,,,,Chemba,Chemba,0
106941-8,OVADA,-5.180528,35.243912,Chemba District Council,,,,Chemba,Chemba,0
106942-6,OVADA VA,-5.183049,35.240048,Chemba District Council,,,,Chemba,Chemba,0
107298-2,SANZAWA,-5.386211,35.318976,Chemba District Council,,,,Chemba,Chemba,0
107558-9,SOYA,-5.220905,36.164339,Chemba District Council,,,,Chemba,Chemba,0
107737-9,TANDALA,-4.955677,36.017738,Chemba District Council,,,,Chemba,Chemba,0
107937-5,TUMBAKOSE,-5.41217,35.697426,Chemba District Council,,,,Chemba,Chemba,0
109699-9,MRIJO JUU,-5.173729,36.258371,Chemba District Council,,,,Chemba,Chemba,0
110512-1,MAZIWA,-5.564852,35.449921,Chemba District Council,,,,Chemba,Chemba,0
100890-3,CHUNYA,-8.53333,33.4167,Chunya District Council,,,,Chunya,Chunya,1.2
102288-8,KAMBIKATOTO,-7.14417,33.4882,Chunya District Council,,,,Chunya,Chunya,1.2
104490-8,MATUNDASI,-8.45163,33.2707,Chunya District Council,,,,Chunya,Chunya,1.2
104567-3,MBANGALA,-8.35409,32.9101,Chunya District Council,,,,Chunya,Chunya,1.2
105901-3,MWANANCHI,-8.41731,33.1589,Chunya District Council,,,,Chunya,Chunya,1.2
106454-2,NGWALA PRISON,-7.72064,32.7879,Chunya District Council,,,,Chunya,Chunya,1.2
107556-3,SOWETO,-8.58041,33.3517,Chunya District Council,,,,Chunya,Chunya,1.2
108008-4,UDINDE,-8.10128,32.6175,Chunya District Council,,,,Chunya,Chunya,1.2
109156-0,NGWALA DISP,-7.742485,32.817439,Chunya District Council,,,,Chunya,Chunya,1.2
109157-8,LUPA,-8.029755,33.265588,Chunya District Council,,,,Chunya,Chunya,1.2
109158-6,MAMBA DISP,-8.115653,33.259304,Chunya District Council,,,,Chunya,Chunya,1.2
109159-4,KANGA DISP,-8.579571,33.058581,Chunya District Council,,,,Chunya,Chunya,1.2
109160-2,GALULA DISP,-8.608564,33.024871,Chunya District Council,,,,Chunya,Chunya,1.2
109161-0,UPENDO DISP,-8.255657,33.249471,Chunya District Council,,,,Chunya,Chunya,1.2
109162-8,MBALA DISP,-8.536998,33.075094,Chunya District Council,,,,Chunya,Chunya,1.2
109163-6,TETE DISP,-8.589708,33.112512,Chunya District Council,,,,Chunya,Chunya,1.2
109164-4,MAPOGORO DISP,-8.427121,33.446473,Chunya District Council,,,,Chunya,Chunya,1.2
109165-1,SANGAMBI DISP,-8.531438,33.606123,Chunya District Council,,,,Chunya,Chunya,1.2
109166-9,IFUMBO DISP,-8.705842,33.283777,Chunya District Council,,,,Chunya,Chunya,1.2
109167-7,IFWENKENYA DISP,-8.634917,33.149211,Chunya District Council,,,,Chunya,Chunya,1.2
109168-5,CHALANGWA DISP,-8.642043,33.560612,Chunya District Council,,,,Chunya,Chunya,1.2
109169-3,GUA DISP,-7.854105,32.484907,Chunya District Council,,,,Chunya,Chunya,1.2
109171-9,KAPALALA DISP,-8.065178,32.684799,Chunya District Council,,,,Chunya,Chunya,1.2
109174-3,LUALAJE DISP,-7.926031,33.570434,Chunya District Council,,,,Chunya,Chunya,1.2
109175-0,SAZA DISP,-8.387387,33.000314,Chunya District Council,,,,Chunya,Chunya,1.2
109176-8,ST.VICENT DISP,-8.030167,33.266296,Chunya District Council,,,,Chunya,Chunya,1.2
109177-6,MBUYUNI HEALTH CENTER,-8.537654,33.003164,Chunya District Council,,,,Chunya,Chunya,1.2
109178-4,NKUNG'UNGU DISP,-7.974889,33.209557,Chunya District Council,,,,Chunya,Chunya,1.2
109179-2,MTANILA HEALTH CENTER,-7.91451,33.325358,Chunya District Council,,,,Chunya,Chunya,1.2
109180-0,MATWIGA DISP,-7.806337,33.378873,Chunya District Council,,,,Chunya,Chunya,1.2
109181-8,NAMKUKWE DISP,-8.58899,32.729105,Chunya District Council,,,,Chunya,Chunya,1.2
109182-6,MAFYEKO DISP,-7.511907,33.440421,Chunya District Council,,,,Chunya,Chunya,1.2
109185-9,BITIMANYANGA DISP,-7.460726,33.427728,Chunya District Council,,,,Chunya,Chunya,1.2
109186-7,MAGAMBA DISP,-8.611093,32.921836,Chunya District Council,,,,Chunya,Chunya,1.2
109187-5,TOTOWE DISP,-8.539012,32.943249,Chunya District Council,,,,Chunya,Chunya,1.2
109188-3,MPONA DISP,-8.585044,32.841147,Chunya District Council,,,,Chunya,Chunya,1.2
109189-1,IFUKO DISP,-8.571398,33.040289,Chunya District Council,,,,Chunya,Chunya,1.2
109211-3,MAKONGOLOSI DISP,-8.416295,33.159181,Chunya District Council,,,,Chunya,Chunya,1.2
109213-9,MWAMBANI HOSP,-8.443633,33.009839,Chunya District Council,,,,Chunya,Chunya,1.2
109214-7,MBUGANI DISP,-8.561966,33.45017,Chunya District Council,,,,Chunya,Chunya,1.2
109542-1,ILEYA,,,Chunya District Council,,,,Chunya,Chunya,1.2
100046-2,AGA KHAN,-6.180008,35.746365,Dodoma Municipal Council,,,,Dodoma,Dodoma,0.1
100108-0,AMANI,-6.160399,35.760658,Dodoma Municipal Council,,,,Dodoma,Dodoma,0.1
100363-1,BIHAWANA,-6.272681,35.639873,Dodoma Municipal Council,,,,Dodoma,Dodoma,0.1
100683-2,CENTRAL UHURU,-6.175822,35.742466,Dodoma Municipal Council,,,,Dodoma,Dodoma,0.1
100696-4,CHAHWA,-6.065831,35.984322,Dodoma Municipal Council,,,,Dodoma,Dodoma,0.1
100725-1,CHAMWINO DTC,-6.16059,35.7385,Dodoma Municipal Council,,,,Dodoma,Dodoma,0.1
100789-7,CHIGONGWE,,,Dodoma Municipal Council,,,,Dodoma,Dodoma,0.1
100793-9,CHIHANGA,-5.91667,35.8333,Dodoma Municipal Council,,,,Dodoma,Dodoma,0.1
100852-3,CHITELELA,,,Dodoma Municipal Council,,,,Dodoma,Dodoma,0.1
100875-4,CHOLOLO,-6.243144,36.000833,Dodoma Municipal Council,,,,Dodoma,Dodoma,0.1
100960-4,DCMC,-6.21418,35.756546,Dodoma Municipal Council,,,,Dodoma,Dodoma,0.1
100987-7,DN,-6.164957,35.760696,Dodoma Municipal Council,,,,Dodoma,Dodoma,0.1
100991-9,DODOMA,-6.17964,35.7436,Dodoma Municipal Council,,,,Dodoma,Dodoma,0.1
101070-1,ELINA M. HOME,,,Dodoma Municipal Council,,,,Dodoma,Dodoma,0.1
101188-1,GAWAYE,-5.89404,35.87894,Dodoma Municipal Council,,,,Dodoma,Dodoma,0.1
101381-2,HOMBOLO,-5.93997,35.97276,Dodoma Municipal Council,,,,Dodoma,Dodoma,0.1
101382-0,HOMBOLO LEPROSY,-5.94233,35.95239,Dodoma Municipal Council,,,,Dodoma,Dodoma,0.1
101383-8,HOMBOLO MAKULU,-5.8918,35.95449,Dodoma Municipal Council,,,,Dodoma,Dodoma,0.1
101624-5,IHUMWA,-6.16667,35.8833,Dodoma Municipal Council,,,,Dodoma,Dodoma,0.1
101625-2,IHUMWA JWTZ,-6.148073,35.878834,Dodoma Municipal Council,,,,Dodoma,Dodoma,0.1
101804-3,IMMACULATA,,,Dodoma Municipal Council,,,,Dodoma,Dodoma,0.1
101819-1,IPALA,-6.01667,35.9333,Dodoma Municipal Council,,,,Dodoma,Dodoma,0.1
101881-1,ISANGA PRISON,-6.17976,35.7078,Dodoma Municipal Council,,,,Dodoma,Dodoma,0.1
102672-3,KIDYALA DENTAL,,,Dodoma Municipal Council,,,,Dodoma,Dodoma,0.1
102786-1,KIKOMBO,-6.21667,35.9833,Dodoma Municipal Council,,,,Dodoma,Dodoma,0.1
102802-6,KIKUYU,-6.193142,35.728502,Dodoma Municipal Council,,,,Dodoma,Dodoma,0.1
103629-2,LUGALA,,,Dodoma Municipal Council,,,,Dodoma,Dodoma,0.1
103838-9,MACKAY HSE,,,Dodoma Municipal Council,,,,Dodoma,Dodoma,0.1
104028-6,MAHOMA MAKULU,-6.08243,35.91001,Dodoma Municipal Council,,,,Dodoma,Dodoma,0.1
104029-4,MAHOMANYIKA,-6.017643,35.943215,Dodoma Municipal Council,,,,Dodoma,Dodoma,0.1
104052-6,MAJENGO,,,Dodoma Municipal Council,,,,Dodoma,Dodoma,0.1
104113-6,MAKOLE,,,Dodoma Municipal Council,,,,Dodoma,Dodoma,0.1
104115-1,MAKOLE,-5.70716,36.0505,Dodoma Municipal Council,,,,Dodoma,Dodoma,0.1
104116-9,MAKOLE RED CROSS,,,Dodoma Municipal Council,,,,Dodoma,Dodoma,0.1
104150-8,MAKUTUPORA JKT,-5.99385,35.752574,Dodoma Municipal Council,,,,Dodoma,Dodoma,0.1
104300-9,MAPINDUZI,-6.24826,35.9167,Dodoma Municipal Council,,,,Dodoma,Dodoma,0.1
104483-3,MATOVOLWA,,,Dodoma Municipal Council,,,,Dodoma,Dodoma,0.1
104489-0,MATUMBULU,-6.31667,35.75,Dodoma Municipal Council,,,,Dodoma,Dodoma,0.1
104540-0,MBABALA A,-6.286447,35.622649,Dodoma Municipal Council,,,,Dodoma,Dodoma,0.1
104541-8,MBABALA B,-6.30788,35.58338,Dodoma Municipal Council,,,,Dodoma,Dodoma,0.1
104557-4,MBALAWALA,-5.998873,35.623216,Dodoma Municipal Council,,,,Dodoma,Dodoma,0.1
104819-8,MICHESE,-6.20799,35.67606,Dodoma Municipal Council,,,,Dodoma,Dodoma,0.1
104962-6,MIREMBE,-6.18005,35.7288,Dodoma Municipal Council,,,,Dodoma,Dodoma,0.1
105119-2,MKOYO,-5.92968,36.0425,Dodoma Municipal Council,,,,Dodoma,Dodoma,0.1
105394-1,MPUNGUZI,,,Dodoma Municipal Council,,,,Dodoma,Dodoma,0.1
105416-2,MSALATO JWTZ,,,Dodoma Municipal Council,,,,Dodoma,Dodoma,0.1
105417-0,MSALATO MAGEREZA,-6.04878,35.75229,Dodoma Municipal Council,,,,Dodoma,Dodoma,0.1
105598-7,MTUMBA,-6.13521,35.9416,Dodoma Municipal Council,,,,Dodoma,Dodoma,0.1
106091-2,NALA,-6.08333,35.6167,Dodoma Municipal Council,,,,Dodoma,Dodoma,0.1
106380-9,NGHONGHONHA,-6.24378,35.82804,Dodoma Municipal Council,,,,Dodoma,Dodoma,0.1
106543-2,NKUHUNGU COMMUNITY,,,Dodoma Municipal Council,,,,Dodoma,Dodoma,0.1
106544-0,NKULABI,-6.41932,35.782775,Dodoma Municipal Council,,,,Dodoma,Dodoma,0.1
106617-4,NTYUKA,-6.230337,35.761069,Dodoma Municipal Council,,,,Dodoma,Dodoma,0.1
106868-3,NZASA,-5.97643,35.86652,Dodoma Municipal Council,,,,Dodoma,Dodoma,0.1
106877-4,NZUNGONI,-6.12464,35.83468,Dodoma Municipal Council,,,,Dodoma,Dodoma,0.1
107011-9,POLICE CENTRAL,,,Dodoma Municipal Council,,,,Dodoma,Dodoma,0.1
107056-4,RAILWAY,,,Dodoma Municipal Council,,,,Dodoma,Dodoma,0.1
107066-3,RC K/NDEGE,,,Dodoma Municipal Council,,,,Dodoma,Dodoma,0.1
107075-4,RED ROSS,,,Dodoma Municipal Council,,,,Dodoma,Dodoma,0.1
107590-2,ST. GEMMA,-6.107776,35.757239,Dodoma Municipal Council,,,,Dodoma,Dodoma,0.1
107594-4,ST. JOHN UNIVERSITY,-6.197705,35.730955,Dodoma Municipal Council,,,,Dodoma,Dodoma,0.1
107938-3,TUMBAKU,-6.81302,37.6539,Dodoma Municipal Council,,,,Dodoma,Dodoma,0.1
108009-2,UDOM,-6.214189,35.796102,Dodoma Municipal Council,,,,Dodoma,Dodoma,0.1
108089-4,UMATI,-6.16308,35.739125,Dodoma Municipal Council,,,,Dodoma,Dodoma,0.1
108120-7,UPENDO,,,Dodoma Municipal Council,,,,Dodoma,Dodoma,0.1
108259-3,VIKONJE,-6.103232,35.974299,Dodoma Municipal Council,,,,Dodoma,Dodoma,0.1
108263-5,VILLAGE OF HOPE,-6.04955,35.7741,Dodoma Municipal Council,,,,Dodoma,Dodoma,0.1
108293-2,VYEYULA,-6.028831,35.75711,Dodoma Municipal Council,,,,Dodoma,Dodoma,0.1
108431-8,ZUZU,-6.172144,35.640203,Dodoma Municipal Council,,,,Dodoma,Dodoma,0.1
110789-5,CHIKANDE MAT,,,Dodoma Municipal Council,,,,Dodoma,Dodoma,0.1
110790-3,SERIKALI ZA MITAA,,,Dodoma Municipal Council,,,,Dodoma,Dodoma,0.1
110791-1,MKONZE,,,Dodoma Municipal Council,,,,Dodoma,Dodoma,0.1
110792-9,PROVIDENCE,,,Dodoma Municipal Council,,,,Dodoma,Dodoma,0.1
100694-9,CHAGONGWE,-6.40194,36.8902,Gairo District Council,,,,Gairo,Gairo,0
100699-8,CHAKWALE,-6.67301,37.082,Gairo District Council,,,,Gairo,Gairo,0
100871-3,CHOGOALI,,,Gairo District Council,,,,Gairo,Gairo,0
101168-3,GAIRO,-6.15,36.8667,Gairo District Council,,,,Gairo,Gairo,0
101169-1,GAIRO MISSION,-6.16288,36.871117,Gairo District Council,,,,Gairo,Gairo,0
101478-6,IDIBO,-6.02354,37.08662,Gairo District Council,,,,Gairo,Gairo,0
101632-8,IJAVA,-6.1812,36.08601,Gairo District Council,,,,Gairo,Gairo,0
102044-5,IYOGWE,-6.0715,37.3012,Gairo District Council,,,,Gairo,Gairo,0
102591-5,KIBEDYA,-6.1,36.9167,Gairo District Council,,,,Gairo,Gairo,0
103486-7,LESHATA,-5.97164,37.06429,Gairo District Council,,,,Gairo,Gairo,0
104227-4,MANDEGE,-6.37897,36.99891,Gairo District Council,,,,Gairo,Gairo,0
104395-9,MASENGE,-6.338714,36.912668,Gairo District Council,,,,Gairo,Gairo,0
105081-4,MKOBWE,,,Gairo District Council,,,,Gairo,Gairo,0
105474-1,MSINGISI,,,Gairo District Council,,,,Gairo,Gairo,0
106567-1,NONGWE,-6.45594,36.9442,Gairo District Council,,,,Gairo,Gairo,0
107123-2,RUBEHO,-6.26735,36.869,Gairo District Council,,,,Gairo,Gairo,0
109896-1,NGUYAMI,-6.073291,37.0489,Gairo District Council,,,,Gairo,Gairo,0
100461-3,BUGULULA,,,Geita District Council,,,,Geita,Geita,0.07
100509-9,BUKOLI,-3.19623,32.32703,Geita District Council,,,,Geita,Geita,0.07
100513-1,BUKONDO,-2.68208,31.92444,Geita District Council,,,,Geita,Geita,0.07
100585-9,BUSANDA,-3.01912,32.12221,Geita District Council,,,,Geita,Geita,0.07
100626-1,BUTWA,,,Geita District Council,,,,Geita,Geita,0.07
100627-9,BUYAGU,-2.98613,32.21575,Geita District Council,,,,Geita,Geita,0.07
100776-4,CHIBINGO,-2.96061,32.00925,Geita District Council,,,,Geita,Geita,0.07
100791-3,CHIGUNGA,-2.81477,31.93444,Geita District Council,,,,Geita,Geita,0.07
100798-8,CHIKOBE,-2.76815,31.91628,Geita District Council,,,,Geita,Geita,0.07
101158-4,FULWE,-2.61457,32.1627,Geita District Council,,,,Geita,Geita,0.07
101446-3,IBONDO,-3.0197,32.00817,Geita District Council,,,,Geita,Geita,0.07
101615-3,IHEGA,-3.21015,32.32518,Geita District Council,,,,Geita,Geita,0.07
102057-7,IZUMACHELI,,,Geita District Council,,,,Geita,Geita,0.07
102174-0,KAGU,-2.7448,32.05064,Geita District Council,,,,Geita,Geita,0.07
102213-6,KAKUBILO,-2.6109,32.07659,Geita District Council,,,,Geita,Geita,0.07
102404-1,KASANG'WA,,,Geita District Council,,,,Geita,Geita,0.07
102415-7,KASEME,-3.10909,31.95451,Geita District Council,,,,Geita,Geita,0.07
102433-0,KASHISHI,-3.07492,32.2014,Geita District Council,,,,Geita,Geita,0.07
102484-3,KATORO,-3.00863,31.93249,Geita District Council,,,,Geita,Geita,0.07
102486-8,KATORO TCMC,-3.00239,31.9257,Geita District Council,,,,Geita,Geita,0.07
102681-4,KIFUFU,-2.71492,32.2244,Geita District Council,,,,Geita,Geita,0.07
103101-2,KISHINDA,-2.67765,32.298,Geita District Council,,,,Geita,Geita,0.07
103609-4,LUBANGA,-2.6337,32.389,Geita District Council,,,,Geita,Geita,0.07
103613-6,LUBONDO,,,Geita District Council,,,,Geita,Geita,0.07
103781-1,LWAMGASA,-3.11418,32.0486,Geita District Council,,,,Geita,Geita,0.07
103788-6,LWENZERA,-2.55192,32.19419,Geita District Council,,,,Geita,Geita,0.07
104801-6,MHARAMBA,-2.58474,32.0074,Geita District Council,,,,Geita,Geita,0.07
105686-0,MUNEKEZI,-3.07646,32.0039,Geita District Council,,,,Geita,Geita,0.07
105886-6,MWAMITILWA,-2.65208,32.48249,Geita District Council,,,,Geita,Geita,0.07
106245-4,NDELEMA,-3.12071,32.31959,Geita District Council,,,,Geita,Geita,0.07
106534-1,NKOME,-2.49947,32.0082,Geita District Council,,,,Geita,Geita,0.07
106653-9,NYAKADUHA,-2.71111,32.3918,Geita District Council,,,,Geita,Geita,0.07
106655-4,NYAKAGWE,-3.21318,32.43422,Geita District Council,,,,Geita,Geita,0.07
106683-6,NYALWANZAJA,-3.04301,32.2841,Geita District Council,,,,Geita,Geita,0.07
106697-6,NYAMALIMBE,-3.08104,32.3678,Geita District Council,,,,Geita,Geita,0.07
106755-2,NYAMWILOLELWA,-2.8062,32.00722,Geita District Council,,,,Geita,Geita,0.07
106806-3,NYARUGUSU,-2.87121,31.94687,Geita District Council,,,,Geita,Geita,0.07
106822-0,NYASEMBE,-2.87122,31.947,Geita District Council,,,,Geita,Geita,0.07
106871-7,NZERA,-2.57685,32.1282,Geita District Council,,,,Geita,Geita,0.07
107366-7,SENGA,-2.61717,31.9738,Geita District Council,,,,Geita,Geita,0.07
109270-9,KASOTA,-2.73586,32.16666,Geita District Council,,,,Geita,Geita,0.07
109301-2,NYUMBANI,-3.00227,31.92946,Geita District Council,,,,Geita,Geita,0.07
109648-6,NYAMTONDO,-3.12998,31.96602,Geita District Council,,,,Geita,Geita,0.07
109691-6,MICO,-3.00731,31.93,Geita District Council,,,,Geita,Geita,0.07
109733-6,LISABON,-3.00642,31.9329,Geita District Council,,,,Geita,Geita,0.07
100533-9,BULELA,,,Geita Town Council,,,,Geita,Geita,0.07
100569-3,BUNEGEZI,-2.95831,32.34183,Geita Town Council,,,,Geita,Geita,0.07
100576-8,BUNG'WANGOKO,,,Geita Town Council,,,,Geita,Geita,0.07
101192-3,GEITA,-2.87387,32.226,Geita Town Council,,,,Geita,Geita,0.07
101193-1,GEITA GOLD MINE,-2.86642,32.18563,Geita Town Council,,,,Geita,Geita,0.07
102394-4,KASAMWA,-2.85115,32.39511,Geita Town Council,,,,Geita,Geita,0.07
102395-1,KASAMWA SDA,,,Geita Town Council,,,,Geita,Geita,0.07
106284-3,NDUNGURU,,,Geita Town Council,,,,Geita,Geita,0.07
106696-8,NYAMALEMBO,,,Geita Town Council,,,,Geita,Geita,0.07
106785-9,NYANKUMBU,,,Geita Town Council,,,,Geita,Geita,0.07
107236-2,SAKAMU,-2.87963,32.21887,Geita Town Council,,,,Geita,Geita,0.07
107623-1,ST. PETER,,,Geita Town Council,,,,Geita,Geita,0.07
107920-1,TUMAINI,,,Geita Town Council,,,,Geita,Geita,0.07
108127-2,UPENDO,,,Geita Town Council,,,,Geita,Geita,0.07
100395-3,BOMA CRCA,-3.33632,37.14844,Hai District Council,,,,Hai,Hai,0
100396-1,BOMA CRCB,-3.33958,37.14841,Hai District Council,,,,Hai,Hai,0
100398-7,BOMA HEALTH CARE,-3.333,37.15134,Hai District Council,,,,Hai,Hai,0
100400-1,BOMA NG'OMBE,-3.32833,37.1623,Hai District Council,,,,Hai,Hai,0
101080-0,EMMAUSI COGI,-3.193896,37.207118,Hai District Council,,,,Hai,Hai,0
101295-4,HAI,-3.33253,37.1424,Hai District Council,,,,Hai,Hai,0
101415-8,HURUMA COGI,-3.3312,37.14866,Hai District Council,,,,Hai,Hai,0
101777-1,IMACULATE,-3.33749,37.13165,Hai District Council,,,,Hai,Hai,0
102507-1,KAWAYA,-3.46035,37.2209,Hai District Council,,,,Hai,Hai,0
102557-6,KIA,-3.421484,37.06664,Hai District Council,,,,Hai,Hai,0
102558-4,KIA RC,-3.38625,37.0629,Hai District Council,,,,Hai,Hai,0
102775-4,KIKAVU CHINI,-3.452881,37.283935,Hai District Council,,,,Hai,Hai,0
103034-5,KIRIKIRI BAKWATA,-3.236937,37.186154,Hai District Council,,,,Hai,Hai,0
103086-5,KISERENI,-3.22613,37.23589,Hai District Council,,,,Hai,Hai,0
103110-3,KISIKI,-3.191467,37.246509,Hai District Council,,,,Hai,Hai,0
103388-5,KWARE,,,Hai District Council,,,,Hai,Hai,0
103390-1,KWASADALA COGI,,,Hai District Council,,,,Hai,Hai,0
103429-7,KYEERI,-3.193897,37.207119,Hai District Council,,,,Hai,Hai,0
103457-8,LAMBO,-3.2827,37.2244,Hai District Council,,,,Hai,Hai,0
103474-3,LEMIRA,-3.23516,37.16608,Hai District Council,,,,Hai,Hai,0
103582-3,LONGOI,-3.406821,37.253627,Hai District Council,,,,Hai,Hai,0
103587-2,LOSAA,-3.205767,37.154144,Hai District Council,,,,Hai,Hai,0
103684-7,LUKANI,-3.190494,37.149465,Hai District Council,,,,Hai,Hai,0
103794-4,LYAMUNGO,-3.23521,37.256879,Hai District Council,,,,Hai,Hai,0
103795-1,LYAMUNGO LUTHERAN,-3.220579,37.255955,Hai District Council,,,,Hai,Hai,0
103831-4,MACHAME,-3.20648,37.2234,Hai District Council,,,,Hai,Hai,0
103888-4,MAGADINI COGI,-3.34146,37.15382,Hai District Council,,,,Hai,Hai,0
104038-5,MAILI SITA RC,-3.3204,37.267,Hai District Council,,,,Hai,Hai,0
104373-6,MASAMA,-3.236937,37.186155,Hai District Council,,,,Hai,Hai,0
104374-4,MASAMA LUTHERAN,-3.236937,37.186157,Hai District Council,,,,Hai,Hai,0
104403-1,MASHUA,,,Hai District Council,,,,Hai,Hai,0
104487-4,MATUMAINI COGI,-3.35268,37.134,Hai District Council,,,,Hai,Hai,0
104577-2,MBATAKERO,-3.352844,37.21721,Hai District Council,,,,Hai,Hai,0
104636-6,MBOSHO RC,-3.27852,37.14916,Hai District Council,,,,Hai,Hai,0
105037-6,MKALAMA,-3.46737,37.2612,Hai District Council,,,,Hai,Hai,0
105306-5,MOSHES,-3.33261,37.14938,Hai District Council,,,,Hai,Hai,0
105692-8,MUNGUSHI,-3.30388,37.13294,Hai District Council,,,,Hai,Hai,0
106203-3,NARUMU,-3.27295,37.2463,Hai District Council,,,,Hai,Hai,0
106204-1,NARUMU RC,-3.2684,37.2469,Hai District Council,,,,Hai,Hai,0
106442-7,NGUNI LUTHERAN,-3.198,37.17115,Hai District Council,,,,Hai,Hai,0
106556-4,NKWANSIRA,-3.240417,37.152157,Hai District Council,,,,Hai,Hai,0
106559-8,NKWESHOO,-3.19663,37.2514,Hai District Council,,,,Hai,Hai,0
106569-7,NRONGA,,,Hai District Council,,,,Hai,Hai,0
107157-0,RUNDUGAI,-3.41428,37.1924,Hai District Council,,,,Hai,Hai,0
107212-3,SAAWE,-3.22008,37.200387,Hai District Council,,,,Hai,Hai,0
107296-6,SANYA STATION,-3.389272,37.116382,Hai District Council,,,,Hai,Hai,0
107430-1,SHIRIMGUNGANI,-3.380744,37.294029,Hai District Council,,,,Hai,Hai,0
107552-2,SONU COGI,-3.22007,37.200386,Hai District Council,,,,Hai,Hai,0
107829-4,TINDIGANI,-3.432795,37.142162,Hai District Council,,,,Hai,Hai,0
108122-3,UPENDO,-3.33392,37.14703,Hai District Council,,,,Hai,Hai,0
108150-4,UROKI,-3.225572,37.220829,Hai District Council,,,,Hai,Hai,0
108196-7,USWAA,,,Hai District Council,,,,Hai,Hai,0
108365-8,WERUWERU,-3.419409,37.299403,Hai District Council,,,,Hai,Hai,0
108386-4,YENU,-3.22662,37.25687,Hai District Council,,,,Hai,Hai,0
109502-5,ST FRANCIS RC,-3.35108,37.12065,Hai District Council,,,,Hai,Hai,0
109548-8,DONI,-3.221944,37.126942,Hai District Council,,,,Hai,Hai,0
109565-2,MTAKUJA,-3.418167,37.209933,Hai District Council,,,,Hai,Hai,0
109574-4,AAR KIA,-3.44194,37.06679,Hai District Council,,,,Hai,Hai,0
109635-3,MAILISITA MEDICAL CENTRE,-3.32026,37.27557,Hai District Council,,,,Hai,Hai,0
100288-0,BALANGDALALU,-4.64209,35.2756,Hanang District Council,,,,Hanang,Hanang,1.4
100331-8,BARJOMOT,-4.38374,35.40241,Hanang District Council,,,,Hanang,Hanang,1.4
100338-3,BASSODESH,-4.29842,35.1299,Hanang District Council,,,,Hanang,Hanang,1.4
100340-9,BASSOTU ZIWANI,-4.36285,35.0711,Hanang District Council,,,,Hanang,Hanang,1.4
100958-8,DAWAR,-4.44525,35.2802,Hanang District Council,,,,Hanang,Hanang,1.4
100982-8,DIRMA,-4.62104,35.46444,Hanang District Council,,,,Hanang,Hanang,1.4
101038-8,DUMBETA,-4.57056,35.39092,Hanang District Council,,,,Hanang,Hanang,1.4
101092-5,ENDASAK,-4.41424,35.51791,Hanang District Council,,,,Hanang,Hanang,1.4
101093-3,ENDASAK PENTEKOSTE,-4.42606,35.50999,Hanang District Council,,,,Hanang,Hanang,1.4
101190-7,GEHANDU,-4.64898,35.20031,Hanang District Council,,,,Hanang,Hanang,1.4
101197-2,GENDABI,-4.42826,35.34698,Hanang District Council,,,,Hanang,Hanang,1.4
101204-6,GETANUWAS,-4.41472,34.9415,Hanang District Council,,,,Hanang,Hanang,1.4
101213-7,GIDAGAMOWD,-4.51154,35.2189,Hanang District Council,,,,Hanang,Hanang,1.4
101215-2,GIDAHABABIEG,-4.47303,35.5648,Hanang District Council,,,,Hanang,Hanang,1.4
101222-8,GITTING,-4.40726,35.453,Hanang District Council,,,,Hanang,Hanang,1.4
102473-6,KATESH,-4.52109,35.37946,Hanang District Council,,,,Hanang,Hanang,1.4
104372-8,MASAKTA,-4.29894,35.5566,Hanang District Council,,,,Hanang,Hanang,1.4
105704-1,MURJANDA,-4.47217,35.1497,Hanang District Council,,,,Hanang,Hanang,1.4
105709-0,MURUMBA,,,Hanang District Council,,,,Hanang,Hanang,1.4
106182-9,NANGWA,-4.5051,35.4442,Hanang District Council,,,,Hanang,Hanang,1.4
107475-6,SIMBAY,-4.55617,35.56239,Hanang District Council,,,,Hanang,Hanang,1.4
107499-6,SIROP,-4.58934,35.6322,Hanang District Council,,,,Hanang,Hanang,1.4
108294-0,WAAMA,-4.75149,35.4252,Hanang District Council,,,,Hanang,Hanang,1.4
108317-9,WARANGA,-4.77884,35.49749,Hanang District Council,,,,Hanang,Hanang,1.4
109266-7,TUMAINI,-4.52013,35.39999,Hanang District Council,,,,Hanang,Hanang,1.4
109762-5,EBENEZER,-4.40982,35.53297,Hanang District Council,,,,Hanang,Hanang,1.4
100410-0,BONDO,-5.30427,38.57925,Handeni District Council,,,,Handeni,Handeni,0
100870-5,CHOGO,-5.59904,38.50592,Handeni District Council,,,,Handeni,Handeni,0
101198-0,GENDAGENDA,-5.58136,38.6543,Handeni District Council,,,,Handeni,Handeni,0
102093-2,JKT MGAMBO,-5.52884,38.58605,Handeni District Council,,,,Handeni,Handeni,0
102144-3,KABUKU,-5.49802,38.4732,Handeni District Council,,,,Handeni,Handeni,0
102145-0,KABUKU NDANI,-5.52059,38.51312,Handeni District Council,,,,Handeni,Handeni,0
102321-7,KANG'ATA,-5.65958,37.8986,Handeni District Council,,,,Handeni,Handeni,0
102602-0,KIBINDU,-5.55411,38.1424,Handeni District Council,,,,Handeni,Handeni,0
103291-1,KOMKONGA,-5.61579,38.41395,Handeni District Council,,,,Handeni,Handeni,0
103293-7,KOMSALA,-5.229474,38.414608,Handeni District Council,,,,Handeni,Handeni,0
103352-1,KWACHAGA,-5.647013,38.179624,Handeni District Council,,,,Handeni,Handeni,0
103367-9,KWAMATUKU,-5.281798,38.354456,Handeni District Council,,,,Handeni,Handeni,0
103374-5,KWAMKONO,-5.44955,38.26137,Handeni District Council,,,,Handeni,Handeni,0
103380-2,KWAMSISI,-5.86507,38.5711,Handeni District Council,,,,Handeni,Handeni,0
103383-6,KWANDUGWA,-5.91006,38.45387,Handeni District Council,,,,Handeni,Handeni,0
103386-9,KWANKONJE,-5.59333,38.20882,Handeni District Council,,,,Handeni,Handeni,0
103387-7,KWARAGURU,-5.4516,38.52716,Handeni District Council,,,,Handeni,Handeni,0
103392-7,KWASUNGA,-5.97517,38.43259,Handeni District Council,,,,Handeni,Handeni,0
103397-6,KWEDITILIBE,-5.45647,38.12876,Handeni District Council,,,,Handeni,Handeni,0
103398-4,KWEDIZINGA,-5.41767,38.52006,Handeni District Council,,,,Handeni,Handeni,0
103846-2,MADEBE,-5.63938,38.00855,Handeni District Council,,,,Handeni,Handeni,0
103900-7,MAGAMBA,-5.555825,38.072257,Handeni District Council,,,,Handeni,Handeni,0
104234-0,MANDERA KIVA,-5.51588,38.15133,Handeni District Council,,,,Handeni,Handeni,0
104241-5,MANGA,-5.91084,38.2328,Handeni District Council,,,,Handeni,Handeni,0
104389-2,MASATU,-5.26548,38.53711,Handeni District Council,,,,Handeni,Handeni,0
104532-7,MAZINGARA,-5.75187,38.26618,Handeni District Council,,,,Handeni,Handeni,0
104978-2,MISIMA,-5.33109,38.111903,Handeni District Council,,,,Handeni,Handeni,0
105060-8,MKATA,-5.783206,38.296997,Handeni District Council,,,,Handeni,Handeni,0
105492-3,MSOMELA,-5.22837,37.99921,Handeni District Council,,,,Handeni,Handeni,0
106048-2,MZERI,-5.206516,38.144308,Handeni District Council,,,,Handeni,Handeni,0
106057-3,MZUNDU,-5.50842,38.33632,Handeni District Council,,,,Handeni,Handeni,0
107346-9,SEGERA,-4.32429,38.54256,Handeni District Council,,,,Handeni,Handeni,0
107483-0,SINDENI,-5.348988,38.230577,Handeni District Council,,,,Handeni,Handeni,0
107687-6,SUWA,-5.701075,38.202732,Handeni District Council,,,,Handeni,Handeni,0
108608-1,BOGOLWA DISPENSARY,-5.597537,38.116767,Handeni District Council,,,,Handeni,Handeni,0
109056-2,GUMBONNEKA,-5.78882,38.18203,Handeni District Council,,,,Handeni,Handeni,0
109095-0,KWANGAHU DISPENSARY,-5.66384,38.37871,Handeni District Council,,,,Handeni,Handeni,0
101313-5,HANDENI,-5.43533,38.02308,Handeni Town Council,,,,Handeni,Handeni,0
102656-6,KIDELEKO,-5.49478,38.01525,Handeni Town Council,,,,Handeni,Handeni,0
103313-3,KONJE,-5.40651,38.10819,Handeni Town Council,,,,Handeni,Handeni,0
105414-7,MSAJE,-5.55281,37.96243,Handeni Town Council,,,,Handeni,Handeni,0
105444-4,MSEKWA,-5.42323,38.02416,Handeni Town Council,,,,Handeni,Handeni,0
108988-7,AMANI HANDENI DISPENSARY,-5.42361,38.02162,Handeni Town Council,,,,Handeni,Handeni,0
100321-9,BARAKA CHEYO,-4.05875,33.3592,Igunga District Council,,,,Igunga,Igunga,0
100495-1,BUKAMA,-4.17899,33.83,Igunga District Council,,,,Igunga,Igunga,0
100507-3,BUKOKO,-4.1747,33.4616,Igunga District Council,,,,Igunga,Igunga,0
100529-7,BULANGAMILWA,-4.11857,33.374,Igunga District Council,,,,Igunga,Igunga,0
100547-9,BULUMBELA,-4.16778,33.4068,Igunga District Council,,,,Igunga,Igunga,0
100777-2,CHIBISO,,,Igunga District Council,,,,Igunga,Igunga,0
100877-0,CHOMA,-4.02232,33.3581,Igunga District Council,,,,Igunga,Igunga,0
101458-8,IBUTAMISUZI,-4.16744,33.9666,Igunga District Council,,,,Igunga,Igunga,0
101574-2,IGOWEKO,-4.74772,33.6055,Igunga District Council,,,,Igunga,Igunga,0
101585-8,IGUMO,-4.57708,33.4633,Igunga District Council,,,,Igunga,Igunga,0
101589-0,IGUNGA,-4.28481,33.8712,Igunga District Council,,,,Igunga,Igunga,0
101590-8,IGUNGA CHF,,,Igunga District Council,,,,Igunga,Igunga,0
101594-0,IGURUBI,-3.99529,33.7074,Igunga District Council,,,,Igunga,Igunga,0
101687-2,IKUNGUIPINA,-4.43989,33.3631,Igunga District Council,,,,Igunga,Igunga,0
101871-2,ISAKAMALIWA,-4.07237,34.04398,Igunga District Council,,,,Igunga,Igunga,0
101937-1,ISUGILO,,,Igunga District Council,,,,Igunga,Igunga,0
102008-0,ITUMBA,-4.56271,33.8603,Igunga District Council,,,,Igunga,Igunga,0
102014-8,ITUNDURU,-4.13548,33.6547,Igunga District Council,,,,Igunga,Igunga,0
102651-7,KIDALU,-4.14722,34.01814,Igunga District Council,,,,Igunga,Igunga,0
102957-8,KINING'INILA,-3.992972,33.931121,Igunga District Council,,,,Igunga,Igunga,0
102969-3,KINUNGU,-3.98,33.5502,Igunga District Council,,,,Igunga,Igunga,0
104050-0,MAJENGO,-4.60342,33.4442,Igunga District Council,,,,Igunga,Igunga,0
104662-2,MBUTU,-4.234,33.89745,Igunga District Council,,,,Igunga,Igunga,0
105019-4,MIZANZA,-4.542843,33.540164,Igunga District Council,,,,Igunga,Igunga,0
105325-5,MOYOFUKE,-4.34078,33.5334,Igunga District Council,,,,Igunga,Igunga,0
105383-4,MPOGOLO,,,Igunga District Council,,,,Igunga,Igunga,0
105605-0,MTUNGULU,,,Igunga District Council,,,,Igunga,Igunga,0
105793-4,MWABUBELE,-4.17527,33.5711,Igunga District Council,,,,Igunga,Igunga,0
105823-9,MWAJILUNGA,,,Igunga District Council,,,,Igunga,Igunga,0
105824-7,MWAKABUTA,,,Igunga District Council,,,,Igunga,Igunga,0
105836-1,MWALALA,-4.40152,33.9288,Igunga District Council,,,,Igunga,Igunga,0
105870-0,MWAMASHIGA,-4.16088,33.7459,Igunga District Council,,,,Igunga,Igunga,0
105871-8,MWAMASHIMBA,,,Igunga District Council,,,,Igunga,Igunga,0
105945-0,MWANYAGULA,-4.10233,33.9243,Igunga District Council,,,,Igunga,Igunga,0
105954-2,MWANZUGI,-4.34092,33.8849,Igunga District Council,,,,Igunga,Igunga,0
105955-9,MWANZUGI RC,-4.35702,33.8809,Igunga District Council,,,,Igunga,Igunga,0
105972-4,MWASHIKUMBILI,,,Igunga District Council,,,,Igunga,Igunga,0
105973-2,MWASHOMA,,,Igunga District Council,,,,Igunga,Igunga,0
106027-6,MWISI,-4.53132,33.449725,Igunga District Council,,,,Igunga,Igunga,0
106170-4,NANGA,-4.26241,33.6143,Igunga District Council,,,,Igunga,Igunga,0
106226-4,NCHELI,,,Igunga District Council,,,,Igunga,Igunga,0
106247-0,NDEMBEZI,-4.31953,33.4178,Igunga District Council,,,,Igunga,Igunga,0
106434-4,NGULU,-4.77471,33.4617,Igunga District Council,,,,Igunga,Igunga,0
106522-6,NKINGA,-4.42621,33.4392,Igunga District Council,,,,Igunga,Igunga,0
106759-4,NYANDEKWA,-4.24653,33.5128,Igunga District Council,,,,Igunga,Igunga,0
107477-2,SIMBO,-4.65565,33.4314,Igunga District Council,,,,Igunga,Igunga,0
107672-8,SUNGWIZI,-4.45486,33.5353,Igunga District Council,,,,Igunga,Igunga,0
107724-7,TAMBALALE,-4.62851,33.5322,Igunga District Council,,,,Igunga,Igunga,0
108188-4,USSONGO,-4.30201,33.4884,Igunga District Council,,,,Igunga,Igunga,0
108197-5,USWAYA,-4.69541,33.5054,Igunga District Council,,,,Igunga,Igunga,0
108217-1,UTUJA,-4.76066,33.465,Igunga District Council,,,,Igunga,Igunga,0
108341-9,WAZAZI MCHUO,,,Igunga District Council,,,,Igunga,Igunga,0
108415-1,ZIBA,-4.241462,33.405228,Igunga District Council,,,,Igunga,Igunga,0
100868-9,CHODA,-5.30548,34.4589,Ikungi District Council,,,,Ikungi,Ikungi,0.13
101041-2,DUNG'UNYI,-5.04,34.448,Ikungi District Council,,,,Ikungi,Ikungi,0.13
101542-9,IGHOMBWE,-4.57,34.2,Ikungi District Council,,,,Ikungi,Ikungi,0.13
101545-2,IGLANSONI,-5.2,34.29,Ikungi District Council,,,,Ikungi,Ikungi,0.13
101611-2,IHANJA,-5.02,34.4,Ikungi District Council,,,,Ikungi,Ikungi,0.13
101684-9,IKUNGI,-5.14214,34.77273,Ikungi District Council,,,,Ikungi,Ikungi,0.13
101859-7,IRISYA,-4.67788,34.59324,Ikungi District Council,,,,Ikungi,Ikungi,0.13
101935-5,ISSUNA,-5.38796,34.75666,Ikungi District Council,,,,Ikungi,Ikungi,0.13
102966-9,KINTANDAA,-4.81776,34.57938,Ikungi District Council,,,,Ikungi,Ikungi,0.13
104105-2,MAKIUNGU,-4.96856,34.85934,Ikungi District Council,,,,Ikungi,Ikungi,0.13
104135-9,MAKOTEA,-4.95417,34.96091,Ikungi District Council,,,,Ikungi,Ikungi,0.13
104260-5,MANG'ONYI,-5.23841,34.92113,Ikungi District Council,,,,Ikungi,Ikungi,0.13
104449-4,MATARE,-5.1624,34.85585,Ikungi District Council,,,,Ikungi,Ikungi,0.13
104478-3,MATONGO,-5.1896,34.71172,Ikungi District Council,,,,Ikungi,Ikungi,0.13
104493-2,MATYUKU,-4.93833,34.70533,Ikungi District Council,,,,Ikungi,Ikungi,0.13
104795-0,MGUNGIRA,-5.00973,34.01144,Ikungi District Council,,,,Ikungi,Ikungi,0.13
104952-7,MINYUGHE,-4.97357,34.53825,Ikungi District Council,,,,Ikungi,Ikungi,0.13
104988-1,MISUGHAA,-5.05484,35.02558,Ikungi District Council,,,,Ikungi,Ikungi,0.13
105079-8,MKIWA,-5.54893,34.66253,Ikungi District Council,,,,Ikungi,Ikungi,0.13
105236-4,MNANE,-5.00168,34.99726,Ikungi District Council,,,,Ikungi,Ikungi,0.13
105501-1,MSOSA,-4.95436,34.14782,Ikungi District Council,,,,Ikungi,Ikungi,0.13
105603-5,MTUNDURU,-4.8237,34.51652,Ikungi District Council,,,,Ikungi,Ikungi,0.13
105655-5,MHINTIRI,-5.16825,34.62057,Ikungi District Council,,,,Ikungi,Ikungi,0.13
105687-8,MUNGAA,-4.97053,34.88108,Ikungi District Council,,,,Ikungi,Ikungi,0.13
105960-9,MWARU,-4.77698,34.27538,Ikungi District Council,,,,Ikungi,Ikungi,0.13
106029-2,MWISI,-4.77705,34.27541,Ikungi District Council,,,,Ikungi,Ikungi,0.13
106542-4,NKUHI,-5.33851,34.77842,Ikungi District Council,,,,Ikungi,Ikungi,0.13
106615-8,NTUNTU,-5.12591,34.98373,Ikungi District Council,,,,Ikungi,Ikungi,0.13
107040-8,PUMA,-5.00266,34.75423,Ikungi District Council,,,,Ikungi,Ikungi,0.13
107049-9,QUEEN OF UNIVERSAL,-4.99242,34.75629,Ikungi District Council,,,,Ikungi,Ikungi,0.13
107261-0,SAMBARU,-5.28375,35.08676,Ikungi District Council,,,,Ikungi,Ikungi,0.13
107505-0,SIUYU RC,-4.89756,34.87801,Ikungi District Council,,,,Ikungi,Ikungi,0.13
107957-3,TUPENDANE,-5.23838,34.92112,Ikungi District Council,,,,Ikungi,Ikungi,0.13
108112-4,UNYANKANYA,-4.87353,34.88137,Ikungi District Council,,,,Ikungi,Ikungi,0.13
108368-2,WIBIA,-4.99998,34.80879,Ikungi District Council,,,,Ikungi,Ikungi,0.13
109799-7,SEPUKA,-4.74762,34.5241,Ikungi District Council,,,,Ikungi,Ikungi,0.13
100010-8,BURHANI CHARITABLE,-6.818845,39.285851,Ilala Municipal Council,,,,Ilala,Ilala,0
100019-9,511 KJ GONGO LA MBOTO,-6.88878,39.15133,Ilala Municipal Council,,,,Ilala,Ilala,0
100025-6,AA&B,-6.800753,39.27466,Ilala Municipal Council,,,,Ilala,Ilala,0
100026-4,APOSTLES OF JESUS NJIA,,,Ilala Municipal Council,,,,Ilala,Ilala,0
100030-6,AAR,-6.81643,39.2856,Ilala Municipal Council,,,,Ilala,Ilala,0
100032-2,HEALTH HOME CHARITABLE,-6.81768,39.2766,Ilala Municipal Council,,,,Ilala,Ilala,0
100036-3,AFYA BORA,-6.84474,39.2261,Ilala Municipal Council,,,,Ilala,Ilala,0
100039-7,AFYA CARE CHARITABLE,-6.827736,39.19782,Ilala Municipal Council,,,,Ilala,Ilala,0
100047-0,AGA KHAN,-6.80146,39.2866,Ilala Municipal Council,,,,Ilala,Ilala,0
100069-4,AIRPORT POLICE,-6.87122,39.20314,Ilala Municipal Council,,,,Ilala,Ilala,0
100070-2,AIRWING 603 ATS,-6.868095,39.19808,Ilala Municipal Council,,,,Ilala,Ilala,0
100072-8,AKIM DENTAL SERVICES,,,Ilala Municipal Council,,,,Ilala,Ilala,0
100075-1,AL HILAL,-6.81897,39.28139,Ilala Municipal Council,,,,Ilala,Ilala,0
100078-5,AL KARIMU,-6.840399,39.237449,Ilala Municipal Council,,,,Ilala,Ilala,0
100086-8,AL JUMAA,-6.818188,39.275753,Ilala Municipal Council,,,,Ilala,Ilala,0
100097-5,AMANA,-6.82674,39.25926,Ilala Municipal Council,,,,Ilala,Ilala,0
100124-7,ANANDA MARGA,-6.928634,39.128981,Ilala Municipal Council,,,,Ilala,Ilala,0
100136-1,APOLLO MEDICAL CENTRE,-6.81857,39.28314,Ilala Municipal Council,,,,Ilala,Ilala,0
100139-5,ARAFA MZINGA,-6.907995,39.202497,Ilala Municipal Council,,,,Ilala,Ilala,0
100142-9,ARAFA AMANI,-6.888277,39.118159,Ilala Municipal Council,,,,Ilala,Ilala,0
100156-9,ARAFA MAJUMBA SITA,-6.865963,39.199649,Ilala Municipal Council,,,,Ilala,Ilala,0
100163-5,ARAFA NEEMA,-6.915506,39.122823,Ilala Municipal Council,,,,Ilala,Ilala,0
100166-8,ARAFA SES CHARITABLE,-6.844491,39.196949,Ilala Municipal Council,,,,Ilala,Ilala,0
100167-6,ARAFA TEMBO MGWAZA,-6.826625,39.189662,Ilala Municipal Council,,,,Ilala,Ilala,0
100200-5,AVIATION,-6.82779,39.25728,Ilala Municipal Council,,,,Ilala,Ilala,0
100210-4,BANK OF TANZANIA HQ,-6.81464,39.29298,Ilala Municipal Council,,,,Ilala,Ilala,0
100282-3,BAKWATA TABATA CHANG'OMBE,,,Ilala Municipal Council,,,,Ilala,Ilala,0
100371-4,BINGI,-6.828636,39.231977,Ilala Municipal Council,,,,Ilala,Ilala,0
100386-2,BLESSING,-6.994774,39.084504,Ilala Municipal Council,,,,Ilala,Ilala,0
100413-4,BONYOKWA,-6.834409,39.159593,Ilala Municipal Council,,,,Ilala,Ilala,0
100419-1,B.A.P SWAMINARAYAN,-6.814639,39.284997,Ilala Municipal Council,,,,Ilala,Ilala,0
100463-9,BUGURUNI,-6.83742,39.2445,Ilala Municipal Council,,,,Ilala,Ilala,0
100464-7,BUGURUNI ANGLICAN,-6.829648,39.250185,Ilala Municipal Council,,,,Ilala,Ilala,0
100633-7,BUYUNI,-6.95661,39.1011,Ilala Municipal Council,,,,Ilala,Ilala,0
100677-4,CARDINAL RUGAMBWA,,,Ilala Municipal Council,,,,Ilala,Ilala,0
100692-3,CHADIBWA,-6.88167,39.1688,Ilala Municipal Council,,,,Ilala,Ilala,0
100738-4,CHANIKA,-6.98047,39.09212,Ilala Municipal Council,,,,Ilala,Ilala,0
100921-6,COH DENTAL,-6.82755,39.25722,Ilala Municipal Council,,,,Ilala,Ilala,0
100940-6,D.I.T,-6.81417,39.28021,Ilala Municipal Council,,,,Ilala,Ilala,0
100956-2,DATOO MED,-6.81907,39.28268,Ilala Municipal Council,,,,Ilala,Ilala,0
100961-2,DECENT,-6.864695,39.186367,Ilala Municipal Council,,,,Ilala,Ilala,0
100965-3,DENTAL CONSULT,,,Ilala Municipal Council,,,,Ilala,Ilala,0
101006-5,DR. HAMEER,-6.81428,39.2736,Ilala Municipal Council,,,,Ilala,Ilala,0
101031-3,DSB,-6.80603,39.27739,Ilala Municipal Council,,,,Ilala,Ilala,0
101054-5,EBENEEZER,-6.8849,39.17042,Ilala Municipal Council,,,,Ilala,Ilala,0
101055-2,EBRAHIM HAJI,-6.81461,39.2837,Ilala Municipal Council,,,,Ilala,Ilala,0
101057-8,EDC POLY,-6.819344,39.287013,Ilala Municipal Council,,,,Ilala,Ilala,0
101058-6,EDEN MEDICAL CHRT,,,Ilala Municipal Council,,,,Ilala,Ilala,0
101075-0,EMARA,-6.84292,39.23325,Ilala Municipal Council,,,,Ilala,Ilala,0
101127-9,FAMILY CARE,-6.810467,39.278208,Ilala Municipal Council,,,,Ilala,Ilala,0
101129-5,FAMILY HEALTH CARE-TABATA,-6.82844,39.2177,Ilala Municipal Council,,,,Ilala,Ilala,0
101143-6,FFU UKONGA,-6.87647,39.17376,Ilala Municipal Council,,,,Ilala,Ilala,0
101154-3,FRONTLINE,-6.824,39.27526,Ilala Municipal Council,,,,Ilala,Ilala,0
101201-2,GEREZANI,-6.824,39.27524,Ilala Municipal Council,,,,Ilala,Ilala,0
101264-0,GULUKA KWA LALA,-6.886474,39.139828,Ilala Municipal Council,,,,Ilala,Ilala,0
101272-3,GUPTA DENTAL,,,Ilala Municipal Council,,,,Ilala,Ilala,0
101338-2,HEAMED ED,,,Ilala Municipal Council,,,,Ilala,Ilala,0
101369-7,SHREE HINDU MANDAL,-6.81515,39.2848,Ilala Municipal Council,,,,Ilala,Ilala,0
101412-5,HURUMA,-6.843554,39.191545,Ilala Municipal Council,,,,Ilala,Ilala,0
101467-9,ICS BUGURUNI,,,Ilala Municipal Council,,,,Ilala,Ilala,0
101468-7,ISLAMIC CULTURE SCHOOL,-6.827092,39.207248,Ilala Municipal Council,,,,Ilala,Ilala,0
101681-5,IKULU,-6.81477,39.2906,Ilala Municipal Council,,,,Ilala,Ilala,0
101808-4,INFECTIOUS DISEASE CENTER,,,Ilala Municipal Council,,,,Ilala,Ilala,0
101967-8,ITECH,,,Ilala Municipal Council,,,,Ilala,Ilala,0
102070-0,JAHA,-6.83044,39.25642,Ilala Municipal Council,,,,Ilala,Ilala,0
102080-9,JEMSA,-6.844123,39.184492,Ilala Municipal Council,,,,Ilala,Ilala,0
102121-1,K.V MISSION,-6.8654,39.2211,Ilala Municipal Council,,,,Ilala,Ilala,0
102268-0,KAM,-6.82753,39.25847,Ilala Municipal Council,,,,Ilala,Ilala,0
102332-4,THE WORLD MISSIONARY FELLOWSHIP OF THE CHURCH OF GOD,-6.821387,39.213199,Ilala Municipal Council,,,,Ilala,Ilala,0
102382-9,KARIAKOO,-6.81983,39.27571,Ilala Municipal Council,,,,Ilala,Ilala,0
